$YDGLL,4844.8692,N,12313.7747,W,173619.00,A,A*72
$YDRMC,173619.00,A,4844.8692,N,12313.7747,W,0.0,221.9,210523,15.7,E,A,C*7D
$YDXTE,A,A,0.000,L,N,A*39
$YDRSA,-138.1,A,,V*42
$YDMTW,12.4,C*09
!AIVDM,1,1,,A,ENkb:<O1Ph@@@@@@@@@@@@@@@@@;VwFO=tfq@00003vP000,2*0E
!AIVDM,1,1,,B,B52bitP06ejlhGVvh>RfOwaQv4`A,0*2C
$YDGSV,5,1,18,06,59,091,51,86,61,043,51,76,56,143,50,12,57,299,49*7D
$YDGSV,5,2,18,87,53,212,48,19,44,060,47,32,07,312,47,11,42,169,44*79
$IIHDG,108.3,,,15.7,E*1B
$SDVLW,,N,0.0,N,1870.9,N,0.0,N*43
$SDVHW,124.0,T,108.3,M,0.0,N,0.0,K*4F
!AIVDM,1,1,,,E>kb9MaaQ@@@@@@@@@@@@@@@@@@;W@2h=hvP000000000?,4*3E
$IIHDG,108.3,,,15.7,E*1B
$WIMWD,150.7,T,135.0,M,1.9,N,1.0,M*57
$WIMWV,46.3,R,2.1,N,A*11
$WIMWV,,T,,N,V*32
$IIXDR,C,,C,AIRTEMP,A,0.1,D,HEEL,A,1.3,D,TRIM,P,1.016,B,BARO,A,,D,RUDDER*2C
$IIHDG,108.3,,,15.7,E*1B
!AIVDM,1,1,,,ENkb:<O1Ph@@@@@@@@@@@@@@@@@;VwFP=tfq@00000000?,4*4C
!AIVDM,1,1,,,B52bitP06MjlhH6vh>RfOwP00000,0*1A
!AIVDM,1,1,,,B52bitP06MjlhH6vh>RfOwP00000,0*1A
$IIHDG,108.3,,,15.7,E*1B
!AIVDM,1,1,,,B4eGlv@0EMjum86v1?1ncwP00000,0*7E
!AIVDM,1,1,,,B4eGlv@0EMjum86v1?1ncwP00000,0*7E
$GPGGA,173617,4844.8683,N,12313.7709,W,2,11,1.00,2,M,-17.0,M,,*52
$GPGLC,9960,,,,,,,,,,,,*75
$IIHDG,108.3,,,15.7,E*1B
$GPGLL,4844.8683,N,12313.7709,W,173617,A,D*57
$GPGSA,A,3,19,12,17,06,11,32,76,86,77,87,69,,1.70,1.00,1.30*02
$GPGSV,3,1,12,19,46,061,39,12,59,302,42,17,23,065,32,06,61,092,40*7C
$GPGSV,3,2,12,11,45,170,31,32,09,314,25,76,59,144,45,86,63,045,38*7B
$GPGSV,3,3,12,77,69,318,35,87,55,215,28,69,10,359,23,24,45,225,*78
!AIVDM,1,1,,,B4eHla000=jvH`6vC0BmSwP00000,0*50
$IIHDG,108.3,,,15.7,E*1B
!AIVDM,1,1,,,B4eHla000=jvH`6vC0BmSwP00000,0*50
$GPRMC,173618,A,4844.8683,N,12313.7709,W,0.1,191.0,210523,15.7,E,D*38
$GPVTG,191.0,T,175.3,M,0.1,N,0.1,K,A*2A
$GPZDA,173618,21,05,2023,07,00*40
$IIHDG,108.4,,,15.7,E*1C
$GPAAM,V,V,0.05,N,001*12
$GPAPB,A,A,0.000,L,N,V,V,175.9,T,001,175.9,T,175.9,T,D*41
$IIHDG,108.4,,,15.7,E*1C
$GPBOD,175.9,T,160.2,M,001,*79
$GPBWC,173618,4844.1651,N,12313.6949,W,175.9,T,160.2,M,0.70,N,001,D*75
$GPBWR,173618,4844.1651,N,12313.6949,W,175.9,T,160.2,M,0.70,N,001,A*61
$GPRMB,A,0.000,L,,001,4844.1651,N,12313.6949,W,0.70,175.9,0.0,V,A*7A
$GPXTE,A,A,0.000,L,N,D*36
$SDDBT,35.0,f,10.6,M,5.8,F*0A
$SDDPT,10.7,-1.8,*69
$IIHDG,108.4,,,15.7,E*1C
$IIHDG,108.5,,,15.7,E*1D
$SDMTW,12.4,C*03
$YDGLL,4844.8683,N,12313.7709,W,173620.00,A,D*77
$YDRMC,173620.00,A,4844.8683,N,12313.7709,W,0.0,221.9,210523,15.7,E,D,C*78
$YDXTE,A,A,0.000,L,N,A*39
$YDMWV,51.9,R,1.0,M,A*1F
$YDMWV,53.1,T,1.0,M,A*13
$YDDPT,10.68,-1.82,140.0,*6F
$YDDBT,35.0,f,10.68,M,5.83,F*0B
$YDDBS,29.0,f,8.86,M,4.84,F*3E
$YDGSV,5,1,18,06,59,091,51,86,61,043,51,76,56,143,50,12,57,299,49*7D
$YDGSV,5,2,18,87,53,212,48,19,44,060,47,32,07,312,47,11,42,169,44*79
$YDVWR,51.9,R,2.1,N,1.1,M,3.9,K*60
$YDVWT,53.1,R,2.1,N,1.1,M,3.8,K*6D
$YDRSA,169.9,A,,V*63
$YDMTW,12.4,C*09
!AIVDM,1,1,,B,19N`2H@0j<o;I<nKq9?kqjvR0000,0*78
$YDGSV,5,1,18,86,61,043,52,06,59,091,51,87,53,212,50,12,57,299,49*72
!AIVDM,1,1,,,ENkb:<O1Ph@@@@@@@@@@@@@@@@@;VwFP=tfq@00000000?,4*4C
!AIVDM,1,1,,,B52bitP06ejlhH6vh>RfKwP00000,0*36
$IIHDG,108.5,,,15.7,E*1D
$SDVLW,,N,0.0,N,1870.9,N,0.0,N*43
$SDVHW,124.2,T,108.5,M,0.0,N,0.0,K*4B
$IIHDG,108.6,,,15.7,E*1E
$WIMWD,150.7,T,135.0,M,1.9,N,1.0,M*57
$WIMWV,52.7,R,2.1,N,A*10
$WIMWV,,T,,N,V*32
$IIXDR,C,,C,AIRTEMP,A,0.2,D,HEEL,A,1.1,D,TRIM,P,1.016,B,BARO,A,,D,RUDDER*2D
$IIHDG,108.6,,,15.7,E*1E
$IIHDG,108.6,,,15.7,E*1E
$GPGGA,173618,4844.8683,N,12313.7709,W,2,11,0.90,2,M,-17.0,M,,*55
$GPGLC,9960,,,,,,,,,,,,*75
$IIHDG,108.7,,,15.7,E*1F
$GPGLL,4844.8683,N,12313.7709,W,173618,A,D*58
$GPGSA,A,3,19,12,17,06,11,32,25,76,86,77,87,,1.70,0.90,1.30*02
$GPGSV,3,1,12,19,46,061,39,12,59,302,42,17,23,065,32,06,61,092,40*7C
$GPGSV,3,2,12,11,45,170,30,32,09,314,24,25,23,300,25,76,59,144,45*78
$GPGSV,3,3,12,86,63,045,38,77,69,318,34,87,55,215,29,24,45,225,*79
$IIHDG,108.7,,,15.7,E*1F
$GPRMC,173619,A,4844.8683,N,12313.7709,W,0.1,191.0,210523,15.7,E,D*39
$GPVTG,191.0,T,175.3,M,0.1,N,0.2,K,A*29
$GPZDA,173619,21,05,2023,07,00*41
$IIHDG,108.7,,,15.7,E*1F
!AIVDM,1,1,,,19N`2H@0R;o;I<hKq9@3qRtR0000,0*1E
$GPAAM,V,V,0.05,N,001*12
$GPAPB,A,A,0.000,L,N,V,V,175.9,T,001,175.9,T,175.9,T,D*41
$IIHDG,108.8,,,15.7,E*10
$GPBOD,175.9,T,160.2,M,001,*79
$GPBWC,173619,4844.1651,N,12313.6949,W,175.9,T,160.2,M,0.71,N,001,D*75
$GPBWR,173619,4844.1651,N,12313.6949,W,175.9,T,160.2,M,0.71,N,001,A*61
$YDVWR,56.1,R,2.1,N,1.1,M,3.9,K*6F
$YDVWT,58.3,R,2.0,N,1.0,M,3.7,K*6B
$GPRMB,A,0.000,L,,001,4844.1651,N,12313.6949,W,0.71,175.9,0.1,V,A*7A
$GPXTE,A,A,0.000,L,N,D*36
$SDDBT,35.0,f,10.6,M,5.8,F*0A
$SDDPT,10.7,-1.8,*69
$IIHDG,108.8,,,15.7,E*10
$IIHDG,108.8,,,15.7,E*10
$SDMTW,12.4,C*03
!AIVDM,1,1,,,19N`2H@0R;o;I<hKq9@3qRtR0000,0*1E
$IIHDG,108.7,,,15.7,E*1F
$SDVLW,,N,0.0,N,1870.9,N,0.0,N*43
$SDVHW,124.5,T,108.7,M,0.0,N,0.0,K*4E
$WIMWD,150.7,T,135.0,M,1.9,N,1.0,M*57
$IIHDG,108.7,,,15.7,E*1F
$WIMWV,51.6,R,2.1,N,A*12
$WIMWV,,T,,N,V*32
$IIXDR,C,,C,AIRTEMP,A,0.2,D,HEEL,A,1.2,D,TRIM,P,1.016,B,BARO,A,,D,RUDDER*2E
$IIHDG,108.7,,,15.7,E*1F
$IIHDG,108.7,,,15.7,E*1F
$GPGGA,173619,4844.8684,N,12313.7709,W,2,11,0.90,2,M,-17.0,M,,*53
$GPGLC,9960,,,,,,,,,,,,*75
$IIHDG,108.7,,,15.7,E*1F
$GPGLL,4844.8684,N,12313.7709,W,173619,A,D*5E
$GPGSA,A,3,24,19,12,17,06,32,25,76,86,77,87,,1.60,0.90,1.30*05
$GPGSV,3,1,12,24,45,225,34,19,46,061,39,12,59,302,42,17,23,065,32*77
$GPGSV,3,2,12,06,61,092,40,32,09,314,18,25,23,300,29,76,59,144,45*71
$GPGSV,3,3,12,86,63,045,37,77,69,318,34,87,55,215,24,11,45,170,*7E
$IIHDG,108.7,,,15.7,E*1F
$GPRMC,173620,A,4844.8684,N,12313.7709,W,0.0,191.0,210523,15.7,E,D*35
$GPVTG,191.0,T,175.3,M,0.0,N,0.0,K,A*2A
$GPZDA,173620,21,05,2023,07,00*4B
$IIHDG,108.8,,,15.7,E*10
$GPAAM,V,V,0.05,N,001*12
$GPAPB,A,A,0.000,L,N,V,V,175.9,T,001,175.9,T,175.9,T,D*41
$IIHDG,108.8,,,15.7,E*10
$GPBOD,175.9,T,160.2,M,001,*79
$GPBWC,173620,4844.1651,N,12313.6949,W,175.9,T,160.2,M,0.71,N,001,D*7F
$GPBWR,173620,4844.1651,N,12313.6949,W,175.9,T,160.2,M,0.71,N,001,A*6B
$GPRMB,A,0.000,L,,001,4844.1651,N,12313.6949,W,0.71,175.9,0.1,V,A*7A
$GPXTE,A,A,0.000,L,N,D*36
$SDDBT,35.0,f,10.6,M,5.8,F*0A
$SDDPT,10.7,-1.8,*69
$IIHDG,108.7,,,15.7,E*1F
$IIHDG,108.7,,,15.7,E*1F
$SDMTW,12.4,C*03
$IIHDG,108.7,,,15.7,E*1F
$SDVLW,,N,0.0,N,1870.9,N,0.0,N*43
$SDVHW,124.4,T,108.7,M,0.0,N,0.0,K*4F
$WIMWD,150.7,T,135.0,M,1.9,N,1.0,M*57
$IIHDG,108.7,,,15.7,E*1F
$WIMWV,34.1,R,2.1,N,A*16
$WIMWV,,T,,N,V*32
$IIXDR,C,,C,AIRTEMP,A,0.1,D,HEEL,A,1.2,D,TRIM,P,1.016,B,BARO,A,,D,RUDDER*2D
$IIHDG,108.6,,,15.7,E*1E
$IIHDG,108.6,,,15.7,E*1E
$GPGGA,173620,4844.8684,N,12313.7709,W,2,11,0.90,2,M,-17.0,M,,*59
$GPGLC,9960,,,,,,,,,,,,*75
$IIHDG,108.7,,,15.7,E*1F
$GPGLL,4844.8684,N,12313.7709,W,173620,A,D*54
$GPGSA,A,3,24,19,12,17,06,11,25,76,86,77,87,,1.60,0.90,1.30*04
$GPGSV,3,1,12,24,45,225,34,19,46,061,39,12,59,302,42,17,23,065,32*77
$GPGSV,3,2,12,06,61,092,39,11,45,170,28,25,23,300,30,76,59,144,45*7D
$GPGSV,3,3,12,86,63,044,36,77,69,318,34,87,55,215,24,03,10,031,*79
$IIHDG,108.7,,,15.7,E*1F
$GPRMC,173621,A,4844.8684,N,12313.7709,W,0.0,191.0,210523,15.7,E,D*34
$GPVTG,191.0,T,175.3,M,0.0,N,0.0,K,A*2A
$GPZDA,173621,21,05,2023,07,00*4A
$IIHDG,108.7,,,15.7,E*1F
$GPAAM,V,V,0.05,N,001*12
$GPAPB,A,A,0.000,L,N,V,V,175.9,T,001,175.9,T,175.9,T,D*41
$IIHDG,108.7,,,15.7,E*1F
$GPBOD,175.9,T,160.2,M,001,*79
$GPBWC,173621,4844.1651,N,12313.6949,W,175.9,T,160.2,M,0.71,N,001,D*7E
$GPBWR,173621,4844.1651,N,12313.6949,W,175.9,T,160.2,M,0.71,N,001,A*6A
$GPRMB,A,0.000,L,,001,4844.1651,N,12313.6949,W,0.71,175.9,0.0,V,A*7B
$GPXTE,A,A,0.000,L,N,D*36
$SDDBT,35.0,f,10.6,M,5.8,F*0A
$SDDPT,10.7,-1.8,*69
$IIHDG,108.6,,,15.7,E*1E
$IIHDG,108.6,,,15.7,E*1E
$SDMTW,12.4,C*03
$IIHDG,108.7,,,15.7,E*1F
$SDVLW,,N,0.0,N,1870.9,N,0.0,N*43
$SDVHW,124.4,T,108.7,M,0.0,N,0.0,K*4F
!AIVDM,1,1,,,ENkb9TvaPh@@@@@@@@@@@@@@@@@;VoCp=jID000000000?,4*07
!AIVDM,1,1,,,ENkb9TvaPh@@@@@@@@@@@@@@@@@;VoCp=jID000000000?,4*07
$IIHDG,108.6,,,15.7,E*1E
$WIMWD,150.7,T,135.0,M,1.9,N,1.0,M*57
$WIMWV,24.9,R,2.1,N,A*1F
$WIMWV,,T,,N,V*32
$IIXDR,C,,C,AIRTEMP,A,0.1,D,HEEL,A,1.2,D,TRIM,P,1.016,B,BARO,A,,D,RUDDER*2D
$IIHDG,108.6,,,15.7,E*1E
!AIVDM,1,1,,,E>kb9MaaQ@@@@@@@@@@@@@@@@@@;W@2h=hvP000000000?,4*3E
$IIHDG,108.6,,,15.7,E*1E
!AIVDM,1,1,,,H4eHRAA<58D84000000000000000,0*2D
!AIVDM,1,1,,,H4eHRAA<58D84000000000000000,0*2D
$GPGGA,173621,4844.8684,N,12313.7709,W,2,12,0.90,2,M,-17.0,M,,*5B
$GPGLC,9960,,,,,,,,,,,,*75
$IIHDG,108.6,,,15.7,E*1E
$GPGLL,4844.8684,N,12313.7709,W,173621,A,D*55
$YDGLL,4844.8692,N,12313.7748,W,173623.00,A,A*74
$YDRMC,173623.00,A,4844.8692,N,12313.7748,W,0.0,158.9,210523,15.7,E,A,C*76
$YDXTE,A,A,0.000,L,N,A*39
$GPGSA,A,3,24,19,12,17,06,11,25,76,86,77,87,69,1.60,0.90,1.30*0B
$GPGSV,3,1,12,24,45,225,34,19,46,061,38,12,59,302,42,17,23,065,32*76
$GPGSV,3,2,12,06,61,092,39,11,45,170,27,25,23,300,31,76,59,144,45*73
$GPGSV,3,3,12,86,63,044,36,77,69,318,34,87,55,215,24,69,10,359,20*7A
$IIHDG,108.6,,,15.7,E*1E
$GPRMC,173622,A,4844.8684,N,12313.7709,W,0.0,191.0,210523,15.7,E,D*37
$GPVTG,191.0,T,175.3,M,0.0,N,0.0,K,A*2A
$GPZDA,173622,21,05,2023,07,00*49
$IIHDG,108.6,,,15.7,E*1E
$GPAAM,V,V,0.05,N,001*12
$GPAPB,A,A,0.000,L,N,V,V,175.9,T,001,175.9,T,175.9,T,D*41
$IIHDG,108.6,,,15.7,E*1E
$GPBOD,175.9,T,160.2,M,001,*79
$GPBWC,173622,4844.1651,N,12313.6949,W,175.9,T,160.2,M,0.71,N,001,D*7D
$GPBWR,173622,4844.1651,N,12313.6949,W,175.9,T,160.2,M,0.71,N,001,A*69
$GPRMB,A,0.000,L,,001,4844.1651,N,12313.6949,W,0.71,175.9,0.0,V,A*7B
$GPXTE,A,A,0.000,L,N,D*36
$SDDBT,35.0,f,10.6,M,5.8,F*0A
$SDDPT,10.7,-1.8,*69
$IIHDG,108.7,,,15.7,E*1F
$SDMTW,12.4,C*03
$IIHDG,108.7,,,15.7,E*1F
!AIVDM,1,1,,,H4eGlvDT00000000000000108210,0*39
!AIVDM,1,1,,,H4eGlvDT00000000000000108210,0*39
$SDVLW,,N,0.0,N,1870.9,N,0.0,N*43
$SDVHW,124.4,T,108.7,M,0.0,N,0.0,K*4F
$IIHDG,108.7,,,15.7,E*1F
!AIVDM,1,1,,,B4eIUKP00=jv?p6vCrsQ3wP00000,0*6A
!AIVDM,1,1,,,B4eIUKP00=jv?p6vCrsQ3wP00000,0*6A
$WIMWD,150.7,T,135.0,M,1.9,N,1.0,M*57
$WIMWV,24.0,R,1.7,N,A*13
$WIMWV,,T,,N,V*32
$IIHDG,108.7,,,15.7,E*1F
$IIXDR,C,,C,AIRTEMP,A,0.1,D,HEEL,A,1.4,D,TRIM,P,1.016,B,BARO,A,,D,RUDDER*2B
$IIHDG,108.7,,,15.7,E*1F
$IIHDG,108.7,,,15.7,E*1F
$GPGGA,173622,4844.8684,N,12313.7710,W,2,12,0.90,2,M,-17.0,M,,*50
$GPGLC,9960,,,,,,,,,,,,*75
$GPGLL,4844.8684,N,12313.7710,W,173622,A,D*5E
$GPGSA,A,3,24,19,12,17,06,11,32,25,76,86,77,87,1.60,0.90,1.30*05
$GPGSV,3,1,12,24,45,225,34,19,46,061,38,12,59,302,42,17,23,065,33*77
$GPGSV,3,2,12,06,61,092,39,11,45,170,27,32,09,314,21,25,23,300,31*73
$GPGSV,3,3,12,76,59,144,45,86,63,044,36,77,70,317,34,87,55,215,25*72
$YDGLL,4844.8692,N,12313.7749,W,173624.00,A,A*72
$YDRMC,173624.00,A,4844.8692,N,12313.7749,W,0.0,189.9,210523,15.7,E,A,C*7C
$YDXTE,A,A,0.000,L,N,A*39
$YDHDG,108.8,,,,*55
$YDDPT,10.68,-1.82,140.0,*6F
$YDVTG,189.9,T,,M,0.0,N,0.0,K,A*0E
$YDVWR,33.4,R,1.6,N,0.8,M,2.9,K*64
$YDMWV,49.7,T,0.7,M,A*18
$YDVTG,189.9,T,174.2,M,0.0,N,0.0,K,A*20
$YDVWR,48.7,R,1.6,N,0.8,M,2.9,K*6B
$YDVWT,49.7,R,1.5,N,0.8,M,2.8,K*6E
$IIHDG,108.7,,,15.7,E*1F
$GPRMC,173623,A,4844.8684,N,12313.7710,W,0.1,191.0,210523,15.7,E,D*3F
$GPVTG,191.0,T,175.3,M,0.1,N,0.1,K,A*2A
$IIHDG,108.7,,,15.7,E*1F
$GPZDA,173623,21,05,2023,07,00*48
$GPAAM,V,V,0.05,N,001*12
$IIHDG,108.7,,,15.7,E*1F
$GPAPB,A,A,0.000,L,N,V,V,175.9,T,001,175.9,T,175.9,T,D*41
$GPBOD,175.9,T,160.2,M,001,*79
$GPBWC,173623,4844.1651,N,12313.6949,W,175.9,T,160.2,M,0.71,N,001,D*7C
$GPBWR,173623,4844.1651,N,12313.6949,W,175.9,T,160.2,M,0.71,N,001,A*68
$GPRMB,A,0.000,L,,001,4844.1651,N,12313.6949,W,0.71,175.9,0.0,V,A*7B
$GPXTE,A,A,0.000,L,N,D*36
$IIHDG,108.8,,,15.7,E*10
$SDDBT,35.0,f,10.6,M,5.8,F*0A
$SDDPT,10.7,-1.8,*69
$IIHDG,108.8,,,15.7,E*10
$SDMTW,12.4,C*03
!AIVDM,1,1,,,39N`2H@02;o;ID0Kq993r2tb0000,0*76
$IIHDG,108.8,,,15.7,E*10
!AIVDM,1,1,,,39N`2H@0B;o;ID0Kq993r2tb0000,0*06
$SDVLW,,N,0.0,N,1870.9,N,0.0,N*43
$SDVHW,124.6,T,108.8,M,0.0,N,0.0,K*42
$IIHDG,108.8,,,15.7,E*10
$WIMWD,150.7,T,135.0,M,1.9,N,1.0,M*57
$WIMWV,51.3,R,1.6,N,A*13
$WIMWV,,T,,N,V*32
!AIVDM,1,1,,,B52HiL00Buk6>P6uH72;KwP00000,0*22
$IIHDG,108.8,,,15.7,E*10
$IIXDR,C,,C,AIRTEMP,A,0.2,D,HEEL,A,1.2,D,TRIM,P,1.016,B,BARO,A,,D,RUDDER*2E
$IIHDG,108.9,,,15.7,E*11
$GPGGA,173623,4844.8684,N,12313.7710,W,2,12,0.90,2,M,-17.0,M,,*51
$IIHDG,108.9,,,15.7,E*11
$GPGLC,9960,,,,,,,,,,,,*75
$GPGLL,4844.8684,N,12313.7710,W,173623,A,D*5F
$GPGSA,A,3,24,19,12,17,06,32,25,76,86,77,87,69,1.60,0.90,1.30*0A
$GPGSV,3,1,12,24,45,225,33,19,46,061,38,12,59,302,42,17,23,065,33*70
$GPGSV,3,2,12,06,61,092,39,32,09,314,23,25,23,300,31,76,59,144,45*7E
$GPGSV,3,3,12,86,63,044,36,77,70,317,34,87,55,215,26,69,10,359,23*7C
$IIHDG,108.9,,,15.7,E*11
$GPRMC,173624,A,4844.8684,N,12313.7710,W,0.0,191.0,210523,15.7,E,D*39
$GPVTG,191.0,T,175.3,M,0.0,N,0.1,K,A*2B
$YDGSV,5,1,18,86,61,043,53,06,59,091,52,12,57,299,49,32,07,312,49*76
$YDGSV,5,2,18,76,56,143,49,87,53,212,49,17,20,064,45,19,44,060,45*79
$GPZDA,173624,21,05,2023,07,00*4F
$IIHDG,108.9,,,15.7,E*11
$GPAAM,V,V,0.05,N,001*12
$YDGLL,4844.8684,N,12313.7709,W,173626.00,A,D*76
$YDRMC,173626.00,A,4844.8684,N,12313.7709,W,0.0,160.9,210523,15.7,E,D,C*7F
$YDXTE,A,A,0.000,L,N,A*39
$YDGSV,5,1,18,86,61,043,53,06,59,091,52,12,57,299,49,32,07,312,49*76
$YDGSV,5,2,18,76,56,143,49,87,53,212,49,17,20,064,45,19,44,060,45*79
$YDVWR,82.0,R,1.6,N,0.8,M,3.0,K*62
$YDVWT,82.6,R,1.6,N,0.8,M,2.9,K*6A
$YDMWV,67.2,R,0.8,M,A*18
$YDMWV,70.3,T,0.8,M,A*19
$YDDPT,10.68,-1.82,140.0,*6F
$YDGGA,173626.00,4844.8692,N,12313.7749,W,1,23,0.57,0.10,M,-18.00,M,,*63
$YDXDR,P,101640,P,Baro*6F
$GPAPB,A,A,0.000,L,N,V,V,175.9,T,001,175.9,T,175.9,T,D*41
$IIHDG,108.9,,,15.7,E*11
$GPBOD,175.9,T,160.2,M,001,*79
$GPBWC,173624,4844.1651,N,12313.6949,W,175.9,T,160.2,M,0.71,N,001,D*7B
$GPBWR,173624,4844.1651,N,12313.6949,W,175.9,T,160.2,M,0.71,N,001,A*6F
$GPRMB,A,0.000,L,,001,4844.1651,N,12313.6949,W,0.71,175.9,0.0,V,A*7B
$GPXTE,A,A,0.000,L,N,D*36
$SDDBT,35.0,f,10.6,M,5.8,F*0A
$SDDPT,10.7,-1.8,*69
$IIHDG,108.9,,,15.7,E*11
$IIHDG,108.9,,,15.7,E*11
$SDMTW,12.4,C*03
$IIHDG,109.0,,,15.7,E*19
$SDVLW,,N,0.0,N,1870.9,N,0.0,N*43
$SDVHW,124.7,T,109.0,M,0.0,N,0.0,K*4A
$IIHDG,109.0,,,15.7,E*19
$WIMWD,150.7,T,135.0,M,1.9,N,1.0,M*57
$WIMWV,81.4,R,1.6,N,A*19
$WIMWV,,T,,N,V*32
!AIVDM,1,1,,,B5O8lFP0>Mk7NL6uAS9A;wP00000,0*05
$IIXDR,C,,C,AIRTEMP,A,0.1,D,HEEL,A,1.2,D,TRIM,P,1.016,B,BARO,A,,D,RUDDER*2D
$IIHDG,109.0,,,15.7,E*19
$IIHDG,109.1,,,15.7,E*18
$GPGGA,173624,4844.8684,N,12313.7710,W,2,12,0.90,2,M,-17.0,M,,*56
$GPGLC,9960,,,,,,,,,,,,*75
$IIHDG,109.1,,,15.7,E*18
$GPGLL,4844.8684,N,12313.7710,W,173624,A,D*58
$GPGSA,A,3,24,19,12,17,06,11,32,25,76,86,77,87,1.60,0.90,1.30*05
$GPGSV,3,1,12,24,45,225,33,19,46,061,38,12,59,302,42,17,22,065,34*76
$GPGSV,3,2,12,06,61,092,39,11,45,170,27,32,09,314,24,25,23,300,31*76
$GPGSV,3,3,12,76,59,144,45,86,63,044,36,77,70,317,34,87,55,215,28*7F
$IIHDG,109.1,,,15.7,E*18
$GPRMC,173625,A,4844.8684,N,12313.7710,W,0.1,191.0,210523,15.7,E,D*39
$GPVTG,191.0,T,175.3,M,0.1,N,0.2,K,A*29
$GPZDA,173625,21,05,2023,07,00*4E
$IIHDG,109.1,,,15.7,E*18
$GPAAM,V,V,0.05,N,001*12
$GPAPB,A,A,0.000,L,N,V,V,175.9,T,001,175.9,T,175.9,T,D*41
$IIHDG,109.2,,,15.7,E*1B
$GPBOD,175.9,T,160.2,M,001,*79
$GPBWC,173625,4844.1651,N,12313.6949,W,175.9,T,160.2,M,0.71,N,001,D*7A
$GPBWR,173625,4844.1651,N,12313.6949,W,175.9,T,160.2,M,0.71,N,001,A*6E
$YDVWR,67.2,R,1.7,N,0.9,M,3.1,K*6A
$YDVWT,70.3,R,1.6,N,0.8,M,3.0,K*6A
$YDRSA,117.9,A,,V*6A
$YDMTW,12.4,C*09
!AIVDM,1,1,,B,14eG;u@000o;3t>Ko6@IJavl0`9P,0*02
!AIVDM,1,1,,B,14eG;u@000o;3t>Ko6@IJavl0D4h,0*13
!AIVDM,1,1,,B,E>kb:Ew0Wh@@@@@@@@@@@@@@@@@;`<mS=fW=H00003vP100,2*16
$YDGSV,5,1,18,86,61,043,53,06,59,091,51,87,53,212,50,12,57,299,49*73
$YDVWR,64.7,R,1.9,N,1.0,M,3.6,K*6D
$YDVWT,64.7,R,1.9,N,1.0,M,3.6,K*6B
!AIVDM,1,1,,B,14eJ0k@3iuo;G>BKpVq6rUVj08@0,0*1D
$GPRMB,A,0.000,L,,001,4844.1651,N,12313.6949,W,0.71,175.9,0.0,V,A*7B
$GPXTE,A,A,0.000,L,N,D*36
$SDDBT,35.0,f,10.6,M,5.8,F*0A
$SDDPT,10.7,-1.8,*69
$IIHDG,109.2,,,15.7,E*1B
$IIHDG,109.2,,,15.7,E*1B
$SDMTW,12.4,C*03
!AIVDM,1,1,,,14eG;u@000o;3t@Ko6@aJItl0000,0*05
!AIVDM,1,1,,,14eG;u@000o;3t@Ko6@aJItl0000,0*05
$IIHDG,109.2,,,15.7,E*1B
$SDVLW,,N,0.0,N,1870.9,N,0.0,N*43
$SDVHW,125.0,T,109.2,M,0.0,N,0.0,K*4E
!AIVDM,1,1,,,E>kb:Ew0Wh@@@@@@@@@@@@@@@@@;`<mP=fW=P00000000?,4*52
!AIVDM,1,1,,,E>kb:Ew0Wh@@@@@@@@@@@@@@@@@;`<mP=fW=P00000000?,4*52
$IIHDG,109.2,,,15.7,E*1B
$WIMWD,150.7,T,135.0,M,1.9,N,1.0,M*57
$WIMWV,63.6,R,1.9,N,A*18
$WIMWV,,T,,N,V*32
!AIVDM,1,1,,,14eJ0k@2ito;G>PKpVqVrETj0000,0*47
$IIXDR,C,,C,AIRTEMP,A,0.0,D,HEEL,A,1.1,D,TRIM,P,1.016,B,BARO,A,,D,RUDDER*2F
!AIVDM,1,1,,,14eJ0k@3ito;G>PKpVqVrETj0000,0*46
$IIHDG,109.3,,,15.7,E*1A
!AIVDM,1,1,,,ENkb9TvaPh@@@@@@@@@@@@@@@@@;VoCp=jID000000000?,4*07
$IIHDG,109.3,,,15.7,E*1A
$GPGGA,173625,4844.8684,N,12313.7709,W,2,12,0.90,2,M,-17.0,M,,*5F
$GPGLC,9960,,,,,,,,,,,,*75
$IIHDG,109.3,,,15.7,E*1A
$GPGLL,4844.8684,N,12313.7709,W,173625,A,D*51
!AIVDM,1,1,,,14eG;u@000o;3t@Ko6@aJItl0000,0*05
!AIVDM,1,1,,,14eG;u@000o;3t@Ko6@aJItl0000,0*05
$GPGSA,A,3,24,19,12,17,06,11,32,25,76,86,77,87,1.60,0.90,1.30*05
$GPGSV,3,1,12,24,45,225,33,19,46,061,38,12,59,302,42,17,22,065,34*76
$GPGSV,3,2,12,06,61,092,39,11,45,170,29,32,09,314,24,25,23,300,32*7B
$YDMWV,78.2,R,1.3,M,A*1C
$YDMWV,79.0,T,1.3,M,A*19
$YDDPT,10.68,-1.82,140.0,*6F
$YDDBT,35.0,f,10.68,M,5.83,F*0B
$YDDBS,29.0,f,8.86,M,4.84,F*3E
$GPGSV,3,3,12,76,59,144,45,86,63,044,36,77,70,317,34,87,55,215,29*7E
$IIHDG,109.3,,,15.7,E*1A
$GPRMC,173626,A,4844.8684,N,12313.7709,W,0.0,191.0,210523,15.7,E,D*33
$GPVTG,191.0,T,175.3,M,0.0,N,0.1,K,A*2B
$GPZDA,173626,21,05,2023,07,00*4D
$IIHDG,109.3,,,15.7,E*1A
$GPAAM,V,V,0.05,N,001*12
!AIVDM,1,1,,,E>kb:Ew0Wh@@@@@@@@@@@@@@@@@;`<mP=fW=P00000000?,4*52
!AIVDM,1,1,,,14eJ0k@3Qto;G>PKpVq6rETj0000,0*1E
$GPAPB,A,A,0.000,L,N,V,V,175.9,T,001,175.9,T,175.9,T,D*41
$IIHDG,109.3,,,15.7,E*1A
!AIVDM,1,1,,,38I1Fc1000o;q?@KrTU7nk:h0000,0*32
$GPBOD,175.9,T,160.2,M,001,*79
$GPBWC,173626,4844.1651,N,12313.6949,W,175.9,T,160.2,M,0.71,N,001,D*79
$GPBWR,173626,4844.1651,N,12313.6949,W,175.9,T,160.2,M,0.71,N,001,A*6D
!AIVDM,1,1,,,38I1Fc1wh0o;q?@KrTU7nk:h0000,0*2D
$GPRMB,A,0.000,L,,001,4844.1651,N,12313.6949,W,0.71,175.9,0.1,V,A*7A
$GPXTE,A,A,0.000,L,N,D*36
$SDDBT,35.0,f,10.6,M,5.8,F*0A
$SDDPT,10.7,-1.8,*69
$IIHDG,109.3,,,15.7,E*1A
!AIVDM,1,1,,,B5O07L00;Ejsh@6vQkiB3wP00000,0*2E
!AIVDM,1,1,,,B5O07L00;Ejsh@6vQkiB3wP00000,0*2E
$IIHDG,109.3,,,15.7,E*1A
$SDMTW,12.4,C*03
$IIHDG,109.3,,,15.7,E*1A
$SDVLW,,N,0.0,N,1870.9,N,0.0,N*43
$SDVHW,125.0,T,109.3,M,0.0,N,0.0,K*4F
$IIHDG,109.3,,,15.7,E*1A
$WIMWD,150.7,T,135.0,M,1.9,N,1.0,M*57
$WIMWV,77.4,R,3.3,N,A*17
$WIMWV,,T,,N,V*32
$IIXDR,C,,C,AIRTEMP,A,-0.1,D,HEEL,A,1.3,D,TRIM,P,1.016,B,BARO,A,,D,RUDDER*01
$IIHDG,109.3,,,15.7,E*1A
$IIHDG,109.3,,,15.7,E*1A
$GPGGA,173626,4844.8684,N,12313.7709,W,2,12,0.90,2,M,-17.0,M,,*5C
$GPGLC,9960,,,,,,,,,,,,*75
$IIHDG,109.3,,,15.7,E*1A
$GPGLL,4844.8684,N,12313.7709,W,173626,A,D*52
$GPGSA,A,3,24,19,12,17,06,11,32,25,76,86,77,87,1.60,0.90,1.30*05
$GPGSV,3,1,12,24,45,225,32,19,46,061,38,12,59,302,42,17,22,065,35*76
$GPGSV,3,2,12,06,61,092,39,11,45,170,31,32,09,314,25,25,23,300,32*73
$GPGSV,3,3,12,76,59,144,44,86,63,044,35,77,70,317,34,87,55,215,30*74
$YDGSV,5,1,18,86,61,043,52,06,59,091,50,76,56,143,49,87,53,212,49*7C
$YDGSV,5,2,18,12,57,299,47,32,07,312,47,19,44,060,46,46,33,187,46*7A
$IIHDG,109.3,,,15.7,E*1A
$GPRMC,173627,A,4844.8684,N,12313.7709,W,0.1,191.0,210523,15.7,E,D*33
$GPVTG,191.0,T,175.3,M,0.1,N,0.1,K,A*2A
$GPZDA,173627,21,05,2023,07,00*4C
$IIHDG,109.3,,,15.7,E*1A
$GPAAM,V,V,0.05,N,001*12
$GPAPB,A,A,0.000,L,N,V,V,175.9,T,001,175.9,T,175.9,T,D*41
$IIHDG,109.3,,,15.7,E*1A
$GPBOD,175.9,T,160.2,M,001,*79
$GPBWC,173627,4844.1651,N,12313.6949,W,175.9,T,160.2,M,0.71,N,001,D*78
$GPBWR,173627,4844.1651,N,12313.6949,W,175.9,T,160.2,M,0.71,N,001,A*6C
$GPRMB,A,0.000,L,,001,4844.1651,N,12313.6949,W,0.71,175.9,0.0,V,A*7B
$GPXTE,A,A,0.000,L,N,D*36
$SDDBT,35.0,f,10.6,M,5.8,F*0A
$YDXDR,A,1.24,D,Pitch,A,-0.09,D,Roll*0B
$YDHDG,109.4,,,15.7,E*00
$YDDBS,29.0,f,8.86,M,4.84,F*3E
$YDVHW,125.0,T,109.3,M,0.0,N,0.0,K,*69
$YDVTG,306.6,T,290.9,M,0.0,N,0.0,K,A*28
$YDVLW,81.733,N,81.733,N*50
$YDRSA,169.9,A,,V*63
$YDMTW,12.4,C*09
$YDGSV,5,2,18,12,57,299,47,32,07,312,47,19,44,060,46,46,33,187,46*7A
$YDGSV,5,4,18,48,33,181,43,11,42,169,42,88,04,215,42,78,10,319,39*7D
$YDGSV,5,5,18,68,02,311,37,77,68,315,36,,,,,,,,*7D
$YDGSA,A,3,86,06,76,87,12,32,19,46,17,24,69,25,0.9,1.3,,2*05
$YDXDR,P,101640,P,Baro*6F
$YDMDA,30.0142,I,1.0164,B,,C,12.4,C,,,,C,203.0,T,187.3,M,3.8,N,1.9,M*27
$SDDPT,10.7,-1.8,*69
$IIHDG,109.3,,,15.7,E*1A
$IIHDG,109.3,,,15.7,E*1A
$SDMTW,12.4,C*03
$SDVLW,,N,0.0,N,1870.9,N,0.0,N*43
$SDVHW,125.0,T,109.3,M,0.0,N,0.0,K*4F
$IIHDG,109.3,,,15.7,E*1A
$WIMWD,150.7,T,135.0,M,1.9,N,1.0,M*57
$WIMWV,78.1,R,3.9,N,A*17
$WIMWV,,T,,N,V*32
$IIHDG,109.3,,,15.7,E*1A
$IIXDR,C,,C,AIRTEMP,A,0.0,D,HEEL,A,1.3,D,TRIM,P,1.016,B,BARO,A,,D,RUDDER*2D
$IIHDG,109.3,,,15.7,E*1A
$IIHDG,109.3,,,15.7,E*1A
$GPGGA,173627,4844.8684,N,12313.7709,W,2,12,0.90,2,M,-17.0,M,,*5D
$GPGLC,9960,,,,,,,,,,,,*75
$YDGLL,4844.8693,N,12313.7748,W,173629.00,A,A*7F
$YDRMC,173629.00,A,4844.8693,N,12313.7748,W,0.0,142.9,210523,15.7,E,A,C*76
$YDXTE,A,A,0.000,L,N,A*39
$GPGLL,4844.8684,N,12313.7709,W,173627,A,D*53
$IIHDG,109.3,,,15.7,E*1A
$GPGSA,A,3,24,19,12,17,06,11,32,25,76,86,77,87,1.60,0.90,1.30*05
$GPGSV,3,1,12,24,45,225,32,19,46,061,38,12,59,302,42,17,22,065,35*76
$GPGSV,3,2,12,06,61,092,38,11,45,170,32,32,09,314,24,25,23,300,32*70
$GPGSV,3,3,12,76,59,144,44,86,63,044,36,77,70,317,34,87,55,215,29*7F
$GPRMC,173628,A,4844.8684,N,12313.7709,W,0.1,191.0,210523,15.7,E,D*3C
$IIHDG,109.3,,,15.7,E*1A
$GPVTG,191.0,T,175.3,M,0.1,N,0.1,K,A*2A
$GPZDA,173628,21,05,2023,07,00*43
$IIHDG,109.2,,,15.7,E*1B
$GPAAM,V,V,0.05,N,001*12
$GPAPB,A,A,0.000,L,N,V,V,175.9,T,001,175.9,T,175.9,T,D*41
$GPBOD,175.9,T,160.2,M,001,*79
$GPBWC,173628,4844.1651,N,12313.6949,W,175.9,T,160.2,M,0.71,N,001,D*77
$GPBWR,173628,4844.1651,N,12313.6949,W,175.9,T,160.2,M,0.71,N,001,A*63
$GPRMB,A,0.000,L,,001,4844.1651,N,12313.6949,W,0.71,175.9,0.1,V,A*7A
$IIHDG,109.2,,,15.7,E*1B
$GPXTE,A,A,0.000,L,N,D*36
$SDDBT,35.0,f,10.6,M,5.8,F*0A
$YDGGA,173629.00,4844.8693,N,12313.7748,W,1,23,0.57,0.00,M,-18.00,M,,*6D
$YDXDR,P,101640,P,Baro*6F
$YDGLL,4844.8693,N,12313.7748,W,173629.50,A,A*7A
$YDRMC,173629.00,A,4844.8693,N,12313.7748,W,0.0,306.6,210523,15.7,E,A,C*7B
$YDXTE,A,A,0.000,L,N,A*39
$SDDPT,10.7,-1.8,*69
$IIHDG,109.2,,,15.7,E*1B
$SDMTW,12.4,C*03
$IIHDG,109.2,,,15.7,E*1B
!AIVDM,1,1,,,14eG;q0022G;rW@KsAPcCa4r0000,0*3D
$SDVLW,,N,0.0,N,1870.9,N,0.0,N*43
$SDVHW,124.9,T,109.2,M,0.0,N,0.0,K*46
$IIHDG,109.2,,,15.7,E*1B
$WIMWD,150.7,T,135.0,M,1.9,N,1.0,M*57
$WIMWV,66.6,R,4.2,N,A*13
$WIMWV,,T,,N,V*32
!AIVDM,1,1,,,19N`2H@wj;o;IM0Kq903s2tl0000,0*64
$IIHDG,109.2,,,15.7,E*1B
!AIVDM,1,1,,,19N`2H@wB;o;IM0Kq903s2tl0000,0*4C
$IIXDR,C,,C,AIRTEMP,A,0.4,D,HEEL,A,1.3,D,TRIM,P,1.016,B,BARO,A,,D,RUDDER*29
$IIHDG,109.2,,,15.7,E*1B
$IIHDG,109.2,,,15.7,E*1B
$GPGGA,173628,4844.8684,N,12313.7709,W,2,12,0.90,2,M,-17.0,M,,*52
$GPGLC,9960,,,,,,,,,,,,*75
$GPGLL,4844.8684,N,12313.7709,W,173628,A,D*5C
$IIHDG,109.2,,,15.7,E*1B
$GPGSA,A,3,24,19,12,17,06,11,32,25,76,86,77,87,1.60,0.90,1.30*05
$GPGSV,3,1,12,24,45,225,32,19,46,062,39,12,59,302,42,17,22,065,35*74
$GPGSV,3,2,12,06,61,092,38,11,45,170,32,32,09,314,25,25,23,300,32*71
$GPGSV,3,3,12,76,59,144,44,86,63,044,36,77,70,317,34,87,55,215,29*7F
$YDGSV,5,3,18,17,20,064,45,24,43,222,45,78,10,319,44,25,21,298,43*7C
$YDGSV,5,4,18,46,33,187,43,11,42,169,42,48,33,181,42,68,02,311,41*76
$GPRMC,173629,A,4844.8684,N,12313.7709,W,0.1,191.0,210523,15.7,E,D*3D
$IIHDG,109.2,,,15.7,E*1B
$GPVTG,191.0,T,175.3,M,0.1,N,0.1,K,A*2A
$GPZDA,173629,21,05,2023,07,00*42
$IIHDG,109.2,,,15.7,E*1B
$GPAAM,V,V,0.05,N,001*12
$GPAPB,A,A,0.000,L,N,V,V,175.9,T,001,175.9,T,175.9,T,D*41
$GPBOD,175.9,T,160.2,M,001,*79
$GPBWC,173629,4844.1651,N,12313.6949,W,175.9,T,160.2,M,0.71,N,001,D*76
$GPBWR,173629,4844.1651,N,12313.6949,W,175.9,T,160.2,M,0.71,N,001,A*62
$GPRMB,A,0.000,L,,001,4844.1651,N,12313.6949,W,0.71,175.9,0.1,V,A*7A
$IIHDG,109.2,,,15.7,E*1B
$GPXTE,A,A,0.000,L,N,D*36
$SDDBT,35.0,f,10.6,M,5.8,F*0A
$SDDPT,10.7,-1.8,*69
$IIHDG,109.2,,,15.7,E*1B
$YDRSA,-138.1,A,,V*42
$YDMTW,12.4,C*09
$YDGSV,5,5,18,77,68,315,38,88,04,215,38,,,,,,,,*71
$YDGGA,173630.00,4844.8693,N,12313.7748,W,1,23,0.57,0.00,M,-18.00,M,,*65
$YDXDR,P,101640,P,Baro*6F
$YDXDR,A,1.16,D,Pitch,A,0.41,D,Roll*2B
$YDHDG,109.3,,,15.7,E*07
$YDDPT,10.68,-1.82,140.0,*6F
$YDMWV,71.1,R,2.2,M,A*14
$YDMWV,71.8,T,2.2,M,A*1B
$YDVTG,171.9,T,156.2,M,0.0,N,0.1,K,A*26
$SDMTW,12.4,C*03
$IIHDG,109.2,,,15.7,E*1B
$SDVLW,,N,0.0,N,1870.9,N,0.0,N*43
$SDVHW,124.9,T,109.2,M,0.0,N,0.0,K*46
$IIHDG,109.2,,,15.7,E*1B
$WIMWD,150.7,T,135.0,M,1.9,N,1.0,M*57
$WIMWV,70.8,R,4.5,N,A*1D
$WIMWV,,T,,N,V*32
$IIHDG,109.2,,,15.7,E*1B
$IIXDR,C,,C,AIRTEMP,A,0.3,D,HEEL,A,1.2,D,TRIM,P,1.016,B,BARO,A,,D,RUDDER*2F
!AIVDM,1,1,,,E>kb:Ew0Wh@@@@@@@@@@@@@@@@@;`<mP=fW=P00000000?,4*52
$IIHDG,109.2,,,15.7,E*1B
!AIVDM,1,1,,,E>kb:Ew0Wh@@@@@@@@@@@@@@@@@;`<mP=fW=P00000000?,4*52
$IIHDG,109.2,,,15.7,E*1B
$GPGGA,173629,4844.8684,N,12313.7709,W,2,12,0.90,2,M,-17.0,M,,*53
$GPGLC,9960,,,,,,,,,,,,*75
$GPGLL,4844.8684,N,12313.7709,W,173629,A,D*5D
$GPGSA,A,3,24,19,12,17,06,11,32,25,76,86,77,87,1.60,0.90,1.30*05
$GPGSV,3,1,12,24,45,225,33,19,46,062,40,12,59,302,42,17,22,065,35*7B
$GPGSV,3,2,12,06,61,092,37,11,45,170,33,32,09,314,25,25,23,300,32*7F
$GPGSV,3,3,12,76,59,144,44,86,63,044,36,77,70,317,33,87,55,215,29*78
$IIHDG,109.2,,,15.7,E*1B
$GPRMC,173630,A,4844.8684,N,12313.7709,W,0.0,191.0,210523,15.7,E,D*34
$GPVTG,191.0,T,175.3,M,0.0,N,0.0,K,A*2A
$IIHDG,109.2,,,15.7,E*1B
$GPZDA,173630,21,05,2023,07,00*4A
$GPAAM,V,V,0.05,N,001*12
$IIHDG,109.2,,,15.7,E*1B
$GPAPB,A,A,0.000,L,N,V,V,175.9,T,001,175.9,T,175.9,T,D*41
$GPBOD,175.9,T,160.2,M,001,*79
$GPBWC,173630,4844.1651,N,12313.6949,W,175.9,T,160.2,M,0.71,N,001,D*7E
$GPBWR,173630,4844.1651,N,12313.6949,W,175.9,T,160.2,M,0.71,N,001,A*6A
$GPRMB,A,0.000,L,,001,4844.1651,N,12313.6949,W,0.71,175.9,0.1,V,A*7A
$GPXTE,A,A,0.000,L,N,D*36
$IIHDG,109.2,,,15.7,E*1B
$SDDBT,35.0,f,10.6,M,5.8,F*0A
$SDDPT,10.7,-1.8,*69
$IIHDG,109.2,,,15.7,E*1B
$SDMTW,12.4,C*03
$IIHDG,109.2,,,15.7,E*1B
$SDVLW,,N,0.0,N,1870.9,N,0.0,N*43
$SDVHW,124.9,T,109.2,M,0.0,N,0.0,K*46
$IIHDG,109.2,,,15.7,E*1B
$WIMWD,150.7,T,135.0,M,1.9,N,1.0,M*57
$WIMWV,77.2,R,4.5,N,A*10
$WIMWV,,T,,N,V*32
$IIHDG,109.2,,,15.7,E*1B
$IIXDR,C,,C,AIRTEMP,A,0.2,D,HEEL,A,1.3,D,TRIM,P,1.016,B,BARO,A,,D,RUDDER*2F
$IIHDG,109.2,,,15.7,E*1B
$GPGGA,173630,4844.8684,N,12313.7710,W,2,12,0.90,2,M,-17.0,M,,*53
$IIHDG,109.2,,,15.7,E*1B
$GPGLC,9960,,,,,,,,,,,,*75
$GPGLL,4844.8684,N,12313.7710,W,173630,A,D*5D
!AIVDM,1,1,,,15NPbI02h0G<610KnEb<G2gp0000,0*1C
$GPGSA,A,3,24,19,12,17,06,11,32,25,76,86,77,87,1.60,0.90,1.30*05
$GPGSV,3,1,12,24,45,225,33,19,46,062,40,12,59,302,42,17,22,065,35*7B
$GPGSV,3,2,12,06,61,092,37,11,45,170,33,32,09,314,26,25,23,300,32*7C
$GPGSV,3,3,12,76,59,144,44,86,63,044,34,77,70,317,33,87,55,215,28*7B
!AIVDM,1,1,,,15NPbI03h0G<610KnEb<G2gp0000,0*1D
$IIHDG,109.2,,,15.7,E*1B
$GPRMC,173631,A,4844.8684,N,12313.7710,W,0.0,191.0,210523,15.7,E,D*3D
$GPVTG,191.0,T,175.3,M,0.0,N,0.1,K,A*2B
$IIHDG,109.2,,,15.7,E*1B
$GPZDA,173631,21,05,2023,07,00*4B
$GPAAM,V,V,0.05,N,001*12
$IIHDG,109.3,,,15.7,E*1A
$GPAPB,A,A,0.000,L,N,V,V,175.9,T,001,175.9,T,175.9,T,D*41
$GPBOD,175.9,T,160.2,M,001,*79
$GPBWC,173631,4844.1651,N,12313.6949,W,175.9,T,160.2,M,0.71,N,001,D*7F
$GPBWR,173631,4844.1651,N,12313.6949,W,175.9,T,160.2,M,0.71,N,001,A*6B
$GPRMB,A,0.000,L,,001,4844.1651,N,12313.6949,W,0.71,175.9,0.0,V,A*7B
$GPXTE,A,A,0.000,L,N,D*36
$IIHDG,109.3,,,15.7,E*1A
$SDDBT,35.0,f,10.6,M,5.8,F*0A
$SDDPT,10.7,-1.8,*69
$IIHDG,109.3,,,15.7,E*1A
$YDGSV,5,1,18,06,59,091,52,86,61,043,52,12,57,299,50,76,56,143,48*7C
$YDGSV,5,2,18,19,44,060,47,69,09,356,47,87,53,212,47,32,07,312,46*7A
$YDGSV,5,5,18,77,68,315,40,68,02,311,39,,,,,,,,*72
$YDGSA,M,3,06,86,12,76,19,69,87,32,11,17,24,48,0.5,0.7,,2*09
$SDMTW,12.4,C*03
$IIHDG,109.3,,,15.7,E*1A
$SDVLW,,N,0.0,N,1870.9,N,0.0,N*43
$SDVHW,125.0,T,109.3,M,0.0,N,0.0,K*4F
$IIHDG,109.3,,,15.7,E*1A
$WIMWD,150.7,T,135.0,M,1.9,N,1.0,M*57
$WIMWV,76.9,R,4.4,N,A*1B
$WIMWV,,T,,N,V*32
$IIXDR,C,,C,AIRTEMP,A,0.3,D,HEEL,A,1.3,D,TRIM,P,1.016,B,BARO,A,,D,RUDDER*2E
$IIHDG,109.2,,,15.7,E*1B
$IIHDG,109.2,,,15.7,E*1B
$GPGGA,173631,4844.8684,N,12313.7710,W,2,12,0.90,2,M,-17.0,M,,*52
$IIHDG,109.2,,,15.7,E*1B
$GPGLC,9960,,,,,,,,,,,,*75
$GPGLL,4844.8684,N,12313.7710,W,173631,A,D*5C
$GPGSA,A,3,24,19,12,17,06,11,32,25,76,86,77,87,1.60,0.90,1.30*05
$GPGSV,3,1,12,24,45,225,34,19,46,062,40,12,59,302,42,17,22,065,35*7C
$GPGSV,3,2,12,06,61,092,37,11,45,170,32,32,09,314,26,25,23,300,32*7D
$GPGSV,3,3,12,76,59,144,44,86,63,044,34,77,70,317,33,87,55,215,27*74
$IIHDG,109.2,,,15.7,E*1B
$GPRMC,173632,A,4844.8684,N,12313.7710,W,0.1,191.0,210523,15.7,E,D*3F
$GPVTG,191.0,T,175.3,M,0.1,N,0.1,K,A*2A
$GPZDA,173632,21,05,2023,07,00*48
$IIHDG,109.2,,,15.7,E*1B
$GPAAM,V,V,0.05,N,001*12
$GPAPB,A,A,0.000,L,N,V,V,175.9,T,001,175.9,T,175.9,T,D*41
$IIHDG,109.2,,,15.7,E*1B
$GPBOD,175.9,T,160.2,M,001,*79
$GPBWC,173632,4844.1651,N,12313.6949,W,175.9,T,160.2,M,0.71,N,001,D*7C
$GPBWR,173632,4844.1651,N,12313.6949,W,175.9,T,160.2,M,0.71,N,001,A*68
!AIVDM,1,1,,,H4eHRADT000000000000001p1210,0*76
!AIVDM,1,1,,,H4eHRADT000000000000001p1210,0*76
$YDVWR,73.9,R,4.3,N,2.2,M,8.0,K*66
$GPRMB,A,0.000,L,,001,4844.1651,N,12313.6949,W,0.71,175.9,0.0,V,A*7B
$GPXTE,A,A,0.000,L,N,D*36
$SDDBT,35.7,f,10.9,M,5.9,F*03
$SDDPT,10.9,-1.8,*67
$IIHDG,109.2,,,15.7,E*1B
$SDMTW,12.4,C*03
$IIHDG,109.2,,,15.7,E*1B
$SDVLW,,N,0.0,N,1870.9,N,0.0,N*43
$SDVHW,124.9,T,109.2,M,0.0,N,0.0,K*46
$IIHDG,109.2,,,15.7,E*1B
$YDGLL,4844.8693,N,12313.7749,W,173633.49,A,A*78
$YDRMC,173633.00,A,4844.8693,N,12313.7749,W,0.0,306.6,210523,15.7,E,A,C*71
$YDXTE,A,A,0.000,L,N,A*39
$YDGSV,5,5,18,77,68,315,40,68,02,311,39,,,,,,,,*72
$YDGSA,M,3,06,86,12,76,19,69,87,32,11,17,24,48,0.5,0.7,,2*09
$YDGGA,173633.00,4844.8693,N,12313.7749,W,1,23,0.57,0.10,M,-18.00,M,,*66
$YDXDR,P,101640,P,Baro*6F
$YDMDA,30.0142,I,1.0164,B,,C,12.4,C,,,,C,201.6,T,185.9,M,4.2,N,2.2,M*2E
$YDXDR,A,1.32,D,Pitch,A,0.67,D,Roll*29
$YDHDG,109.2,,,15.7,E*06
$YDDPT,10.91,-1.82,140.0,*69
$YDVWR,76.0,R,4.3,N,2.2,M,8.0,K*6A
$YDVWT,76.7,R,4.3,N,2.2,M,7.9,K*6D
$YDGLL,4844.8693,N,12313.7749,W,173634.00,A,A*72
$YDRMC,173634.00,A,4844.8693,N,12313.7749,W,0.0,306.6,210523,15.7,E,A,C*76
$YDXTE,A,A,0.000,L,N,A*39
$YDGSV,5,1,18,06,59,091,51,12,57,299,50,86,61,043,50,69,09,356,48*7F
$YDGSV,5,2,18,19,44,060,47,32,07,312,47,76,56,143,47,87,53,212,46*78
$WIMWD,150.7,T,135.0,M,1.9,N,1.0,M*57
$WIMWV,77.1,R,4.3,N,A*15
$WIMWV,,T,,N,V*32
$IIXDR,C,,C,AIRTEMP,A,0.7,D,HEEL,A,1.4,D,TRIM,P,1.016,B,BARO,A,,D,RUDDER*2D
$IIHDG,109.1,,,15.7,E*18
$IIHDG,109.1,,,15.7,E*18
$GPGGA,173632,4844.8684,N,12313.7710,W,2,12,0.90,2,M,-17.0,M,,*51
$IIHDG,109.1,,,15.7,E*18
$GPGLC,9960,,,,,,,,,,,,*75
$GPGLL,4844.8684,N,12313.7710,W,173632,A,D*5F
$GPGSA,A,3,24,19,12,17,06,11,32,25,76,86,77,87,1.60,0.90,1.30*05
$GPGSV,3,1,12,24,45,225,34,19,46,062,40,12,59,302,42,17,22,065,35*7C
$GPGSV,3,2,12,06,61,092,36,11,45,170,32,32,09,314,26,25,23,300,32*7C
$GPGSV,3,3,12,76,59,144,44,86,63,044,34,77,70,317,33,87,55,215,26*75
$IIHDG,109.1,,,15.7,E*18
$GPRMC,173633,A,4844.8684,N,12313.7710,W,0.1,191.0,210523,15.7,E,D*3E
$GPVTG,191.0,T,175.3,M,0.1,N,0.2,K,A*29
$GPZDA,173633,21,05,2023,07,00*49
$IIHDG,109.1,,,15.7,E*18
!AIVDM,1,1,,,H4eHoe0P588TpLE:0TTV22222200,0*18
!AIVDM,1,1,,,H4eHoe0P588TpLE:0TTV22222200,0*18
$GPAAM,V,V,0.05,N,001*12
!AIVDM,1,1,,,14eG;th000o;4nhKo3j2W7K40000,0*61
$GPAPB,A,A,0.000,L,N,V,V,175.9,T,001,175.9,T,175.9,T,D*41
$IIHDG,109.1,,,15.7,E*18
!AIVDM,1,1,,,14eG;th000o;4nhKo3j2W7K40000,0*61
$GPBOD,175.9,T,160.2,M,001,*79
$GPBWC,173633,4844.1651,N,12313.6949,W,175.9,T,160.2,M,0.71,N,001,D*7D
$GPBWR,173633,4844.1651,N,12313.6949,W,175.9,T,160.2,M,0.71,N,001,A*69
$GPRMB,A,0.000,L,,001,4844.1651,N,12313.6949,W,0.71,175.9,0.0,V,A*7B
$GPXTE,A,A,0.000,L,N,D*36
!AIVDM,1,1,,,34eGkSm000o;4gPKo4I1oGC40000,0*47
$SDDBT,36.1,f,11.0,M,6.0,F*04
$SDDPT,11.0,-1.8,*6F
$IIHDG,109.1,,,15.7,E*18
!AIVDM,1,1,,,H52HiL0HTpE=B0dTp@0000000000,0*13
!AIVDM,1,1,,,H4eHoe4U000000036>nook0`=550,0*0E
$IIHDG,109.1,,,15.7,E*18
!AIVDM,1,1,,,H4eHoe4U000000036>nook0`=550,0*0E
$SDMTW,12.4,C*03
$IIHDG,109.1,,,15.7,E*18
$SDVLW,,N,0.0,N,1870.9,N,0.0,N*43
$SDVHW,124.8,T,109.1,M,0.0,N,0.0,K*44
!AIVDM,1,1,,,ENkb:FO90h@@@@@@@@@@@@@@@@@;VQh8=ltB@00000000?,4*07
$IIHDG,109.1,,,15.7,E*18
$YDGSV,5,1,18,06,59,091,51,12,57,299,50,86,61,043,50,69,09,356,48*7F
$YDGSV,5,2,18,19,44,060,47,32,07,312,47,76,56,143,47,87,53,212,46*78
$YDVWR,76.0,R,4.3,N,2.2,M,8.0,K*6A
$YDDBS,30.1,f,9.20,M,5.03,F*34
$YDVHW,124.9,T,109.2,M,0.0,N,0.0,K,*60
$YDVTG,306.6,T,290.9,M,0.0,N,0.0,K,A*28
$YDVLW,81.733,N,81.733,N*50
$YDRSA,169.9,A,,V*63
$YDMTW,12.4,C*09
$YDGSV,5,1,18,06,59,091,50,86,61,043,50,12,57,299,49,32,07,312,48*76
$YDGSV,5,2,18,76,56,143,48,69,09,356,47,87,53,212,47,24,43,222,46*7A
$WIMWD,201.6,T,185.9,M,4.3,N,2.2,M*5D
$WIMWV,77.1,R,4.3,N,A*15
$WIMWV,,T,,N,V*32
$IIXDR,C,,C,AIRTEMP,A,1.1,D,HEEL,A,1.3,D,TRIM,P,1.016,B,BARO,A,,D,RUDDER*2D
$IIHDG,109.1,,,15.7,E*18
!AIVDM,1,1,,,ENkb:F<Hh@@@@@@@@@@@@@@@@@@;VI5@=m`:@00000000?,4*25
$IIHDG,109.1,,,15.7,E*18
$GPGGA,173633,4844.8684,N,12313.7710,W,2,12,0.90,2,M,-17.0,M,,*50
$IIHDG,109.1,,,15.7,E*18
$GPGLC,9960,,,,,,,,,,,,*75
$GPGLL,4844.8684,N,12313.7710,W,173633,A,D*5E
$GPGSA,A,3,24,19,12,17,06,11,32,25,76,86,77,87,1.60,0.90,1.30*05
$GPGSV,3,1,12,24,45,225,35,19,46,062,40,12,59,302,42,17,22,065,34*7C
$GPGSV,3,2,12,06,61,092,35,11,45,170,31,32,09,314,26,25,23,300,33*7D
$GPGSV,3,3,12,76,59,144,44,86,63,044,34,77,70,317,32,87,55,215,24*76
$IIHDG,109.1,,,15.7,E*18
$GPRMC,173634,A,4844.8684,N,12313.7710,W,0.1,191.0,210523,15.7,E,D*39
$GPVTG,191.0,T,175.3,M,0.1,N,0.1,K,A*2A
$GPZDA,173634,21,05,2023,07,00*4E
$IIHDG,109.1,,,15.7,E*18
$GPAAM,V,V,0.05,N,001*12
$GPAPB,A,A,0.000,L,N,V,V,175.9,T,001,175.9,T,175.9,T,D*41
$IIHDG,109.1,,,15.7,E*18
$GPBOD,175.9,T,160.2,M,001,*79
$GPBWC,173634,4844.1651,N,12313.6949,W,175.9,T,160.2,M,0.71,N,001,D*7A
$GPBWR,173634,4844.1651,N,12313.6949,W,175.9,T,160.2,M,0.71,N,001,A*6E
$GPRMB,A,0.000,L,,001,4844.1651,N,12313.6949,W,0.71,175.9,0.1,V,A*7A
$GPXTE,A,A,0.000,L,N,D*36
$SDDBT,35.0,f,10.6,M,5.8,F*0A
$SDDPT,10.7,-1.8,*69
$IIHDG,109.1,,,15.7,E*18
$IIHDG,109.1,,,15.7,E*18
$SDMTW,12.4,C*03
$YDGSV,5,1,18,06,59,091,50,86,61,043,50,12,57,299,49,32,07,312,48*76
$YDGSV,5,2,18,76,56,143,48,69,09,356,47,87,53,212,47,24,43,222,46*7A
$IIHDG,109.1,,,15.7,E*18
$SDVLW,,N,0.0,N,1870.9,N,0.0,N*43
$SDVHW,124.8,T,109.1,M,0.0,N,0.0,K*44
$IIHDG,109.1,,,15.7,E*18
$WIMWD,150.7,T,135.0,M,1.9,N,1.0,M*57
$WIMWV,77.1,R,4.3,N,A*15
$WIMWV,,T,,N,V*32
$IIXDR,C,,C,AIRTEMP,A,0.8,D,HEEL,A,1.3,D,TRIM,P,1.016,B,BARO,A,,D,RUDDER*25
$IIHDG,109.1,,,15.7,E*18
$IIHDG,109.1,,,15.7,E*18
$GPGGA,173634,4844.8684,N,12313.7710,W,2,12,0.90,2,M,-17.0,M,,*57
$YDGLL,4844.8692,N,12313.7749,W,173636.00,A,A*71
$YDRMC,173636.00,A,4844.8692,N,12313.7749,W,0.0,306.6,210523,15.7,E,A,C*75
$YDXTE,A,A,0.000,L,N,A*39
$YDVWR,85.2,R,4.0,N,2.1,M,7.5,K*6E
$YDVWT,85.7,R,4.0,N,2.1,M,7.5,K*6D
$YDGSV,5,2,18,32,07,312,47,69,09,356,47,19,44,060,46,87,53,212,46*7B
$YDGSV,5,3,18,17,20,064,44,48,33,181,44,11,42,169,43,24,43,222,42*74
$YDGSV,5,5,18,68,02,311,38,77,68,315,37,,,,,,,,*73
$YDGSA,M,3,06,86,12,76,32,69,19,87,17,48,11,24,0.5,0.7,,2*09
$IIHDG,109.1,,,15.7,E*18
$GPGLC,9960,,,,,,,,,,,,*75
$GPGLL,4844.8684,N,12313.7710,W,173634,A,D*59
!AIVDM,1,1,,,39N`2H@wj;o;IahKq8k3sRu20000,0*77
$GPGSA,A,3,24,19,12,17,06,11,32,25,76,86,77,69,1.60,0.90,1.30*05
$GPGSV,3,1,12,24,45,225,34,19,46,062,40,12,59,302,42,17,22,065,34*7D
$GPGSV,3,2,12,06,61,092,31,11,45,170,31,32,09,314,26,25,23,300,33*79
$GPGSV,3,3,12,76,59,144,44,86,63,044,34,77,70,317,32,69,10,359,23*79
!AIVDM,1,1,,,39N`2H@wB;o;IahKq8k3sRu20000,0*5F
$IIHDG,109.1,,,15.7,E*18
$GPRMC,173635,A,4844.8684,N,12313.7710,W,0.0,191.0,210523,15.7,E,D*39
$GPVTG,191.0,T,175.3,M,0.0,N,0.1,K,A*2B
$GPZDA,173635,21,05,2023,07,00*4F
$IIHDG,109.1,,,15.7,E*18
$GPAAM,V,V,0.05,N,001*12
$GPAPB,A,A,0.000,L,N,V,V,175.9,T,001,175.9,T,175.9,T,D*41
$IIHDG,109.1,,,15.7,E*18
$GPBOD,175.9,T,160.2,M,001,*79
$GPBWC,173635,4844.1651,N,12313.6949,W,175.9,T,160.2,M,0.71,N,001,D*7B
$GPBWR,173635,4844.1651,N,12313.6949,W,175.9,T,160.2,M,0.71,N,001,A*6F
$GPRMB,A,0.000,L,,001,4844.1651,N,12313.6949,W,0.71,175.9,0.1,V,A*7A
$GPXTE,A,A,0.000,L,N,D*36
$SDDBT,35.4,f,10.8,M,5.9,F*01
$SDDPT,10.8,-1.8,*66
$IIHDG,109.1,,,15.7,E*18
$IIHDG,109.1,,,15.7,E*18
$SDMTW,12.4,C*03
!AIVDM,1,1,,,14eJ0k@2j2o;G>PKpUL6uEa60000,0*32
$IIHDG,109.1,,,15.7,E*18
!AIVDM,1,1,,,14eJ0k@3j2o;G>PKpUL6uEa60000,0*33
$SDVLW,,N,0.0,N,1870.9,N,0.0,N*43
$SDVHW,124.8,T,109.1,M,0.0,N,0.0,K*44
$IIHDG,109.1,,,15.7,E*18
$WIMWD,150.7,T,135.0,M,1.9,N,1.0,M*57
$WIMWV,75.0,R,3.9,N,A*1B
$WIMWV,,T,,N,V*32
!AIVDM,1,1,,,B5O14R00DUjtHD6v3N9?owP00000,0*48
!AIVDM,1,1,,,B5O14R00DUjtHD6v3N9?owP00000,0*48
$IIXDR,C,,C,AIRTEMP,A,0.6,D,HEEL,A,1.4,D,TRIM,P,1.016,B,BARO,A,,D,RUDDER*2C
$IIHDG,109.1,,,15.7,E*18
$IIHDG,109.1,,,15.7,E*18
!AIVDM,1,1,,,14eG;u@000o;3t@Ko6@WSau80000,0*57
$GPGGA,173635,4844.8684,N,12313.7710,W,2,12,0.90,2,M,-17.0,M,,*56
$IIHDG,109.1,,,15.7,E*18
$GPGLC,9960,,,,,,,,,,,,*75
$GPGLL,4844.8684,N,12313.7710,W,173635,A,D*58
$GPGSA,A,3,24,19,12,17,06,11,32,25,76,86,77,87,1.60,0.90,1.30*05
$GPGSV,3,1,12,24,45,225,34,19,46,062,40,12,59,302,43,17,22,065,34*7C
$GPGSV,3,2,12,06,61,092,30,11,45,170,25,32,09,314,25,25,23,300,33*7E
$GPGSV,3,3,12,76,59,144,44,86,63,044,34,77,70,317,32,87,55,215,24*76
$IIHDG,109.0,,,15.7,E*19
$GPRMC,173636,A,4844.8684,N,12313.7710,W,0.1,191.0,210523,15.7,E,D*3B
!AIVDM,1,1,,A,14eG;u@000o;3t>Ko6@GSqw80L4d,0*46
$YDRSA,169.9,A,,V*63
$YDMTW,12.4,C*09
$YDVWR,74.6,R,3.6,N,1.8,M,6.6,K*6D
$YDGLL,4844.8691,N,12313.7749,W,173638.00,A,A*7C
$YDRMC,173638.00,A,4844.8691,N,12313.7749,W,0.0,306.6,210523,15.7,E,A,C*78
$YDXTE,A,A,0.000,L,N,A*39
$GPVTG,191.0,T,175.3,M,0.1,N,0.1,K,A*2A
$GPZDA,173636,21,05,2023,07,00*4C
$IIHDG,109.0,,,15.7,E*19
$GPAAM,V,V,0.05,N,001*12
$GPAPB,A,A,0.000,L,N,V,V,175.9,T,001,175.9,T,175.9,T,D*41
$IIHDG,109.0,,,15.7,E*19
$GPBOD,175.9,T,160.2,M,001,*79
$GPBWC,173636,4844.1651,N,12313.6949,W,175.9,T,160.2,M,0.71,N,001,D*78
$GPBWR,173636,4844.1651,N,12313.6949,W,175.9,T,160.2,M,0.71,N,001,A*6C
$GPRMB,A,0.000,L,,001,4844.1651,N,12313.6949,W,0.71,175.9,0.1,V,A*7A
$GPXTE,A,A,0.000,L,N,D*36
$SDDBT,35.0,f,10.6,M,5.8,F*0A
$SDDPT,10.7,-1.8,*69
$IIHDG,109.0,,,15.7,E*19
$IIHDG,109.0,,,15.7,E*19
$SDMTW,12.4,C*03
$IIHDG,109.0,,,15.7,E*19
$SDVLW,,N,0.0,N,1870.9,N,0.0,N*43
$SDVHW,124.7,T,109.0,M,0.0,N,0.0,K*4A
$IIHDG,109.0,,,15.7,E*19
$WIMWD,150.7,T,135.0,M,1.9,N,1.0,M*57
$WIMWV,76.8,R,3.6,N,A*1F
$WIMWV,,T,,N,V*32
$IIXDR,C,,C,AIRTEMP,A,0.5,D,HEEL,A,1.4,D,TRIM,P,1.016,B,BARO,A,,D,RUDDER*2F
$IIHDG,109.0,,,15.7,E*19
$IIHDG,109.0,,,15.7,E*19
$GPGGA,173636,4844.8684,N,12313.7710,W,2,12,0.90,2,M,-17.0,M,,*55
$IIHDG,109.0,,,15.7,E*19
$GPGLC,9960,,,,,,,,,,,,*75
$GPGLL,4844.8684,N,12313.7710,W,173636,A,D*5B
$GPGSA,A,3,24,19,12,17,06,32,25,76,86,77,87,69,1.60,0.90,1.30*0A
$GPGSV,3,1,12,24,45,225,34,19,46,062,40,12,59,302,43,17,22,065,34*7C
$GPGSV,3,2,12,06,61,092,31,32,09,314,24,25,23,300,33,76,59,144,44*72
$GPGSV,3,3,12,86,63,044,34,77,70,317,33,87,55,215,24,69,10,359,17*7C
$IIHDG,109.0,,,15.7,E*19
$GPRMC,173637,A,4844.8684,N,12313.7710,W,0.0,191.0,210523,15.7,E,D*3B
$GPVTG,191.0,T,175.3,M,0.0,N,0.1,K,A*2B
$GPZDA,173637,21,05,2023,07,00*4D
$IIHDG,109.0,,,15.7,E*19
!AIVDM,1,1,,,14eG;u@000o;3t@Ko6@WSau80000,0*57
$GPAAM,V,V,0.05,N,001*12
$GPAPB,A,A,0.000,L,N,V,V,175.9,T,001,175.9,T,175.9,T,D*41
$IIHDG,109.1,,,15.7,E*18
$GPBOD,175.9,T,160.2,M,001,*79
$GPBWC,173637,4844.1651,N,12313.6949,W,175.9,T,160.2,M,0.71,N,001,D*79
$GPBWR,173637,4844.1651,N,12313.6949,W,175.9,T,160.2,M,0.71,N,001,A*6D
$GPRMB,A,0.000,L,,001,4844.1651,N,12313.6949,W,0.71,175.9,0.1,V,A*7A
$GPXTE,A,A,0.000,L,N,D*36
$SDDBT,35.0,f,10.6,M,5.8,F*0A
$SDDPT,10.7,-1.8,*69
$IIHDG,109.2,,,15.7,E*1B
$SDMTW,12.4,C*03
$YDGLL,4844.8691,N,12313.7749,W,173638.49,A,A*71
$YDRMC,173638.00,A,4844.8691,N,12313.7749,W,0.0,306.6,210523,15.7,E,A,C*78
$YDXTE,A,A,0.000,L,N,A*39
$YDGSV,5,3,18,69,09,356,47,87,53,212,47,46,33,187,46,17,20,064,44*7A
$YDGSV,3,1,12,24,43,223,34,19,44,060,40,12,57,300,43,17,20,063,34*7E
$YDGSV,3,2,12,06,59,090,32,11,43,168,26,25,21,298,33,76,57,142,45*7D
$YDGGA,173639.00,4844.8691,N,12313.7749,W,1,23,0.57,0.50,M,-18.00,M,,*6A
$YDXDR,P,101640,P,Baro*6F
$YDMDA,30.0142,I,1.0164,B,,C,12.4,C,,,,C,191.0,T,175.3,M,3.6,N,1.8,M*2D
$YDHDG,109.3,,,15.7,E*07
$YDDPT,10.68,-1.82,140.0,*6F
$YDMWV,65.8,R,1.9,M,A*10
$YDMWV,66.0,T,1.8,M,A*1C
$YDVTG,306.6,T,290.9,M,0.0,N,0.0,K,A*28
$YDDBS,29.0,f,8.86,M,4.84,F*3E
$YDVHW,125.1,T,109.4,M,0.0,N,0.0,K,*6F
$YDVTG,306.6,T,290.9,M,0.0,N,0.0,K,A*28
$YDVLW,81.733,N,81.733,N*50
$YDRSA,117.9,A,,V*6A
$YDMTW,12.4,C*09
$YDGSV,5,5,18,88,04,216,38,77,68,315,37,,,,,,,,*7D
$YDGSA,M,3,06,86,11,12,19,32,69,76,87,24,17,46,0.5,0.7,,2*07
$YDGGA,173639.00,4844.8691,N,12313.7749,W,1,23,0.57,0.50,M,-18.00,M,,*6A
$IIHDG,109.2,,,15.7,E*1B
$SDVLW,,N,0.0,N,1870.9,N,0.0,N*43
$SDVHW,124.9,T,109.2,M,0.0,N,0.0,K*46
$IIHDG,109.2,,,15.7,E*1B
$WIMWD,150.7,T,135.0,M,1.9,N,1.0,M*57
$WIMWV,67.4,R,3.6,N,A*13
$WIMWV,,T,,N,V*32
!AIVDM,1,1,,,H4eII:TT00000000000000105210,0*43
$IIXDR,C,,C,AIRTEMP,A,0.8,D,HEEL,A,1.4,D,TRIM,P,1.016,B,BARO,A,,D,RUDDER*22
$IIHDG,109.2,,,15.7,E*1B
!AIVDM,1,1,,,ENkb:FO90h@@@@@@@@@@@@@@@@@;VQh8=ltB@00000000?,4*07
$IIHDG,109.2,,,15.7,E*1B
$GPGGA,173637,4844.8684,N,12313.7709,W,2,12,0.90,2,M,-17.0,M,,*5C
$IIHDG,109.2,,,15.7,E*1B
$GPGLC,9960,,,,,,,,,,,,*75
$GPGLL,4844.8684,N,12313.7709,W,173637,A,D*52
$GPGSA,A,3,24,19,12,17,06,11,25,76,86,77,87,69,1.60,0.90,1.30*0B
$GPGSV,3,1,12,24,45,225,34,19,46,062,40,12,59,302,43,17,22,065,34*7C
$GPGSV,3,2,12,06,61,092,32,11,45,170,26,25,23,300,33,76,59,144,45*7B
$GPGSV,3,3,12,86,63,044,33,77,70,317,33,87,55,215,24,69,10,359,17*7B
$IIHDG,109.2,,,15.7,E*1B
$GPRMC,173638,A,4844.8684,N,12313.7709,W,0.1,191.0,210523,15.7,E,D*3D
$GPVTG,191.0,T,175.3,M,0.1,N,0.2,K,A*29
$GPZDA,173638,21,05,2023,07,00*42
$IIHDG,109.3,,,15.7,E*1A
$GPAAM,V,V,0.05,N,001*12
$GPAPB,A,A,0.000,L,N,V,V,175.9,T,001,175.9,T,175.9,T,D*41
$IIHDG,109.3,,,15.7,E*1A
$GPBOD,175.9,T,160.2,M,001,*79
$GPBWC,173638,4844.1651,N,12313.6949,W,175.9,T,160.2,M,0.71,N,001,D*76
$GPBWR,173638,4844.1651,N,12313.6949,W,175.9,T,160.2,M,0.71,N,001,A*62
$GPRMB,A,0.000,L,,001,4844.1651,N,12313.6949,W,0.71,175.9,0.1,V,A*7A
$GPXTE,A,A,0.000,L,N,D*36
!AIVDM,1,1,,,19N`2H@wR;o;Ig0Kq8eSrBu80000,0*66
$SDDBT,35.0,f,10.6,M,5.8,F*0A
$SDDPT,10.7,-1.8,*69
$IIHDG,109.3,,,15.7,E*1A
!AIVDM,1,1,,,19N`2H@w2;o;Ig0Kq8eSrBu80000,0*06
$IIHDG,109.3,,,15.7,E*1A
$SDMTW,12.4,C*03
$IIHDG,109.4,,,15.7,E*1D
$SDVLW,,N,0.0,N,1870.9,N,0.0,N*43
$SDVHW,125.1,T,109.4,M,0.0,N,0.0,K*49
$IIHDG,109.4,,,15.7,E*1D
$WIMWD,191.0,T,175.3,M,3.5,N,1.8,M*5C
$WIMWV,74.9,R,3.8,N,A*12
$WIMWV,,T,,N,V*32
$IIXDR,C,,C,AIRTEMP,A,1.3,D,HEEL,A,1.4,D,TRIM,P,1.016,B,BARO,A,,D,RUDDER*28
$IIHDG,109.4,,,15.7,E*1D
$IIHDG,109.5,,,15.7,E*1C
$GPGGA,173638,4844.8684,N,12313.7709,W,2,12,0.90,2,M,-17.0,M,,*53
$GPGLC,9960,,,,,,,,,,,,*75
$IIHDG,109.5,,,15.7,E*1C
$GPGLL,4844.8684,N,12313.7709,W,173638,A,D*5D
$GPGSA,A,3,24,19,12,17,06,11,25,76,86,77,87,69,1.60,0.90,1.30*0B
$GPGSV,3,1,12,24,45,224,33,19,46,062,40,12,59,302,43,17,22,065,34*7A
$GPGSV,3,2,12,06,61,092,32,11,45,170,26,25,23,300,33,76,59,144,45*7B
$GPGSV,3,3,12,86,63,044,34,77,70,317,33,87,55,215,24,69,10,359,18*73
$IIHDG,109.5,,,15.7,E*1C
$GPRMC,173639,A,4844.8684,N,12313.7709,W,0.1,191.0,210523,15.7,E,D*3C
$GPVTG,191.0,T,175.3,M,0.1,N,0.1,K,A*2A
$GPZDA,173639,21,05,2023,07,00*43
$IIHDG,109.5,,,15.7,E*1C
$GPAAM,V,V,0.05,N,001*12
$GPAPB,A,A,0.000,L,N,V,V,175.9,T,001,175.9,T,175.9,T,D*41
$IIHDG,109.5,,,15.7,E*1C
$GPBOD,175.9,T,160.2,M,001,*79
$GPBWC,173639,4844.1651,N,12313.6949,W,175.9,T,160.2,M,0.71,N,001,D*77
$GPBWR,173639,4844.1651,N,12313.6949,W,175.9,T,160.2,M,0.71,N,001,A*63
$GPRMB,A,0.000,L,,001,4844.1651,N,12313.6949,W,0.71,175.9,0.1,V,A*7A
$GPXTE,A,A,0.000,L,N,D*36
$SDDBT,35.0,f,10.6,M,5.8,F*0A
$SDDPT,10.7,-1.8,*69
$IIHDG,109.5,,,15.7,E*1C
$IIHDG,109.5,,,15.7,E*1C
$SDMTW,12.4,C*03
$IIHDG,109.4,,,15.7,E*1D
$SDVLW,,N,0.0,N,1870.9,N,0.0,N*43
$SDVHW,125.2,T,109.4,M,0.0,N,0.0,K*4A
$WIMWD,191.0,T,175.3,M,3.5,N,1.8,M*5C
$IIHDG,109.4,,,15.7,E*1D
$WIMWV,65.8,R,3.9,N,A*12
$WIMWV,,T,,N,V*32
$IIXDR,C,,C,AIRTEMP,A,1.7,D,HEEL,A,1.3,D,TRIM,P,1.016,B,BARO,A,,D,RUDDER*2B
$IIHDG,109.4,,,15.7,E*1D
$IIHDG,109.4,,,15.7,E*1D
$GPGGA,173639,4844.8684,N,12313.7709,W,2,12,0.90,1,M,-17.0,M,,*51
$GPGLC,9960,,,,,,,,,,,,*75
$IIHDG,109.3,,,15.7,E*1A
$GPGLL,4844.8684,N,12313.7709,W,173639,A,D*5C
$GPGSA,A,3,24,19,12,17,06,11,32,25,76,86,77,87,1.60,0.90,1.30*05
$GPGSV,3,1,12,24,45,224,32,19,46,062,40,12,59,302,43,17,22,065,33*7C
$GPGSV,3,2,12,06,61,092,26,11,45,170,26,32,09,314,23,25,23,300,33*7C
$GPGSV,3,3,12,76,59,144,45,86,63,044,35,77,70,317,33,87,55,215,27*74
$IIHDG,109.3,,,15.7,E*1A
$GPRMC,173640,A,4844.8684,N,12313.7709,W,0.1,191.0,210523,15.7,E,D*32
$GPVTG,191.0,T,175.3,M,0.1,N,0.1,K,A*2A
$GPZDA,173640,21,05,2023,07,00*4D
$IIHDG,109.2,,,15.7,E*1B
$GPAAM,V,V,0.05,N,001*12
$GPAPB,A,A,0.000,L,N,V,V,175.9,T,001,175.9,T,175.9,T,D*41
$IIHDG,109.2,,,15.7,E*1B
$GPBOD,175.9,T,160.2,M,001,*79
$GPBWC,173640,4844.1651,N,12313.6949,W,175.9,T,160.2,M,0.71,N,001,D*79
$GPBWR,173640,4844.1651,N,12313.6949,W,175.9,T,160.2,M,0.71,N,001,A*6D
$GPRMB,A,0.000,L,,001,4844.1651,N,12313.6949,W,0.71,175.9,0.1,V,A*7A
$GPXTE,A,A,0.000,L,N,D*36
$SDDBT,35.0,f,10.6,M,5.8,F*0A
$SDDPT,10.7,-1.8,*69
$IIHDG,109.2,,,15.7,E*1B
$IIHDG,109.2,,,15.7,E*1B
$SDMTW,12.4,C*03
$IIHDG,109.1,,,15.7,E*18
$SDVLW,,N,0.0,N,1870.9,N,0.0,N*43
$SDVHW,124.8,T,109.1,M,0.0,N,0.0,K*44
$WIMWD,191.0,T,175.3,M,3.5,N,1.8,M*5C
$IIHDG,109.1,,,15.7,E*18
$WIMWV,56.3,R,3.7,N,A*17
$WIMWV,,T,,N,V*32
$IIXDR,C,,C,AIRTEMP,A,1.6,D,HEEL,A,1.4,D,TRIM,P,1.016,B,BARO,A,,D,RUDDER*2D
!AIVDM,1,1,,,39N`2H@wj;o;Ik0Kq8bSr2u<0000,0*23
!AIVDM,1,1,,,39N`2H@wB;o;Ik0Kq8bSr2u<0000,0*0B
$IIHDG,109.1,,,15.7,E*18
$IIHDG,109.0,,,15.7,E*19
$YDVWR,43.7,R,3.6,N,1.9,M,6.7,K*68
$YDGSV,3,1,12,24,43,222,30,19,44,060,40,12,57,300,43,17,20,063,33*7C
$YDGSV,3,2,12,06,59,090,28,32,07,312,24,25,21,298,32,76,57,142,45*7B
$GPGGA,173640,4844.8684,N,12313.7709,W,2,12,0.90,1,M,-17.0,M,,*5F
$GPGLC,9960,,,,,,,,,,,,*75
$IIHDG,109.0,,,15.7,E*19
$GPGLL,4844.8684,N,12313.7709,W,173640,A,D*52
$GPGSA,A,3,24,19,12,17,06,32,25,76,86,77,87,69,1.60,0.90,1.30*0A
$GPGSV,3,1,12,24,45,224,30,19,46,062,40,12,59,302,43,17,22,065,33*7E
$GPGSV,3,2,12,06,61,092,28,32,09,314,24,25,23,300,32,76,59,144,45*7A
$GPGSV,3,3,12,86,63,044,35,77,70,317,33,87,55,215,28,69,10,359,21*74
$IIHDG,108.9,,,15.7,E*11
$GPRMC,173641,A,4844.8684,N,12313.7709,W,0.0,191.0,210523,15.7,E,D*32
$GPVTG,191.0,T,175.3,M,0.0,N,0.0,K,A*2A
$GPZDA,173641,21,05,2023,07,00*4C
$IIHDG,108.9,,,15.7,E*11
$GPAAM,V,V,0.05,N,001*12
$GPAPB,A,A,0.000,L,N,V,V,175.9,T,001,175.9,T,175.9,T,D*41
$IIHDG,108.9,,,15.7,E*11
$GPBOD,175.9,T,160.2,M,001,*79
$GPBWC,173641,4844.1651,N,12313.6949,W,175.9,T,160.2,M,0.71,N,001,D*78
$GPBWR,173641,4844.1651,N,12313.6949,W,175.9,T,160.2,M,0.71,N,001,A*6C
$GPRMB,A,0.000,L,,001,4844.1651,N,12313.6949,W,0.71,175.9,0.1,V,A*7A
$GPXTE,A,A,0.000,L,N,D*36
$SDDBT,35.0,f,10.6,M,5.8,F*0A
$SDDPT,10.7,-1.8,*69
$IIHDG,108.8,,,15.7,E*10
$IIHDG,108.8,,,15.7,E*10
$SDMTW,12.4,C*03
!AIVDM,1,1,,,B4eI?0010=jt?p6uQr80OwP00000,0*5F
$IIHDG,108.8,,,15.7,E*10
$SDVLW,,N,0.0,N,1870.9,N,0.0,N*43
$SDVHW,124.5,T,108.8,M,0.0,N,0.0,K*41
$IIHDG,108.7,,,15.7,E*1F
$WIMWD,191.0,T,175.3,M,3.5,N,1.8,M*5C
$WIMWV,45.3,R,3.5,N,A*17
$WIMWV,,T,,N,V*32
$IIXDR,C,,C,AIRTEMP,A,1.2,D,HEEL,A,1.3,D,TRIM,P,1.016,B,BARO,A,,D,RUDDER*2E
$IIHDG,108.7,,,15.7,E*1F
$IIHDG,108.7,,,15.7,E*1F
$GPGGA,173641,4844.8684,N,12313.7709,W,2,12,0.90,1,M,-17.0,M,,*5E
$GPGLC,9960,,,,,,,,,,,,*75
$IIHDG,108.6,,,15.7,E*1E
$GPGLL,4844.8684,N,12313.7709,W,173641,A,D*53
$GPGSA,A,3,24,19,12,17,06,32,25,76,86,77,87,69,1.60,0.90,1.30*0A
$GPGSV,3,1,12,24,45,224,22,19,46,062,40,12,59,302,44,17,22,065,32*7B
$GPGSV,3,2,12,06,61,092,28,32,09,314,24,25,23,300,32,76,59,144,45*7A
$GPGSV,3,3,12,86,63,044,35,77,70,317,33,87,55,215,29,69,10,359,21*75
$IIHDG,108.6,,,15.7,E*1E
$YDGLL,4844.8684,N,12313.7709,W,173643.00,A,D*75
$YDRMC,173643.00,A,4844.8684,N,12313.7709,W,0.0,49.9,210523,15.7,E,D,C*46
$YDXTE,A,A,0.000,L,N,A*39
$YDGSV,3,1,12,24,43,222,22,19,44,060,40,12,57,300,44,17,20,063,32*79
$YDGSV,3,2,12,06,59,090,28,32,07,312,24,25,21,298,32,76,57,142,45*7B
$YDGGA,173643.00,4844.8684,N,12313.7709,W,2,12,0.90,-15.54,M,-17.00,M,,*7F
$YDXDR,P,101640,P,Baro*6F
$YDMDA,30.0142,I,1.0164,B,,C,12.4,C,,,,C,,T,,M,,N,,M*28
$YDVWR,64.0,R,3.4,N,1.7,M,6.2,K*63
$YDDBS,29.0,f,8.86,M,4.84,F*3E
$YDVHW,124.3,T,108.6,M,0.0,N,0.0,K,*6F
$YDVTG,103.9,T,88.2,M,0.0,N,0.0,K,A*10
$GPRMC,173642,A,4844.8684,N,12313.7709,W,0.0,191.0,210523,15.7,E,D*31
$GPVTG,191.0,T,175.3,M,0.0,N,0.1,K,A*2B
$GPZDA,173642,21,05,2023,07,00*4F
$IIHDG,108.6,,,15.7,E*1E
$GPAAM,V,V,0.05,N,001*12
$GPAPB,A,A,0.000,L,N,V,V,175.9,T,001,175.9,T,175.9,T,D*41
$IIHDG,108.6,,,15.7,E*1E
$GPBOD,175.9,T,160.2,M,001,*79
$GPBWC,173642,4844.1651,N,12313.6949,W,175.9,T,160.2,M,0.71,N,001,D*7B
$GPBWR,173642,4844.1651,N,12313.6949,W,175.9,T,160.2,M,0.71,N,001,A*6F
$GPRMB,A,0.000,L,,001,4844.1651,N,12313.6949,W,0.71,175.9,0.0,V,A*7B
$GPXTE,A,A,0.000,L,N,D*36
$SDDBT,35.0,f,10.6,M,5.8,F*0A
$SDDPT,10.7,-1.8,*69
$IIHDG,108.5,,,15.7,E*1D
$SDMTW,12.4,C*03
$IIHDG,108.5,,,15.7,E*1D
!AIVDM,1,1,,,B5Nuos00;Uk1?T6uig17wwP00000,0*43
$SDVLW,,N,0.0,N,1870.9,N,0.0,N*43
!AIVDM,1,1,,,B5Nuos00;Uk1?T6uig17wwP00000,0*43
$SDVHW,124.3,T,108.5,M,0.0,N,0.0,K*4A
!AIVDM,1,1,,,B4eI:000R5k1U`6v9rBFOwP00000,0*68
$IIHDG,108.5,,,15.7,E*1D
$WIMWD,,T,,M,,N,,M*5A
$WIMWV,66.7,R,3.3,N,A*14
$WIMWV,,T,,N,V*32
$IIHDG,108.5,,,15.7,E*1D
$IIXDR,C,,C,AIRTEMP,A,1.2,D,HEEL,A,1.4,D,TRIM,P,1.016,B,BARO,A,,D,RUDDER*29
$IIHDG,108.5,,,15.7,E*1D
!AIVDM,2,1,6,,54eG;th2;Jt8<HkSCT1<dDDp615DDDp00000000t6Pr;;0@P08@@00000000,0*55
!AIVDM,2,2,7,,00000000003,2*61
!AIVDM,2,1,8,,54eG;th2;Jt8<HkSCT1<dDDp615DDDp00000000t6Pr;;0@P08@@00000000,0*5B
!AIVDM,2,2,9,,00000000003,2*6F
$GPGGA,173642,4844.8684,N,12313.7709,W,2,12,0.90,1,M,-17.0,M,,*5D
$IIHDG,108.4,,,15.7,E*1C
$YDGLL,4844.8684,N,12313.7709,W,173644.00,A,D*72
$YDRMC,173644.00,A,4844.8684,N,12313.7709,W,0.0,103.9,210523,15.7,E,D,C*7E
$YDXTE,A,A,0.000,L,N,A*39
$YDGSV,3,3,12,76,57,142,45,86,61,042,35,77,68,315,33,87,53,213,31*7E
$YDGSA,A,3,24,19,12,17,06,11,32,25,76,86,77,87,0.9,1.3,,1*0B
$GPGLC,9960,,,,,,,,,,,,*75
$GPGLL,4844.8684,N,12313.7709,W,173642,A,D*50
$GPGSA,A,3,24,19,12,17,06,11,32,25,76,86,77,87,1.60,0.90,1.30*05
$GPGSV,3,1,12,24,45,224,24,19,46,062,40,12,59,302,43,17,22,065,31*79
$GPGSV,3,2,12,06,61,092,28,11,45,170,28,32,09,314,25,25,23,300,30*79
$GPGSV,3,3,12,76,59,144,45,86,63,044,35,77,70,317,33,87,55,215,31*73
$IIHDG,108.4,,,15.7,E*1C
$GPRMC,173643,A,4844.8684,N,12313.7709,W,0.0,191.0,210523,15.7,E,D*30
$GPVTG,191.0,T,175.3,M,0.0,N,0.0,K,A*2A
$IIHDG,108.4,,,15.7,E*1C
$GPZDA,173643,21,05,2023,07,00*4E
$GPAAM,V,V,0.05,N,001*12
$IIHDG,108.4,,,15.7,E*1C
$GPAPB,A,A,0.000,L,N,V,V,175.9,T,001,175.9,T,175.9,T,D*41
$GPBOD,175.9,T,160.2,M,001,*79
$YDVHW,,T,108.4,M,0.0,N,0.0,K,*47
$YDVTG,316.9,T,,M,0.0,N,0.0,K,A*0A
$YDVLW,81.733,N,81.733,N*50
$YDRSA,169.9,A,,V*63
$YDMTW,12.4,C*09
$YDGGA,173644.00,4844.8684,N,12313.7709,W,2,12,0.90,-15.54,M,-17.00,M,0.00,0000*66
$YDXDR,P,101640,P,Baro*6F
$YDMDA,30.0142,I,1.0164,B,,C,12.4,C,,,,C,,T,,M,,N,,M*28
$YDHDG,108.4,,,,*59
$YDDPT,10.61,-1.82,140.0,*66
$YDVTG,316.9,T,,M,0.0,N,0.0,K,A*0A
$YDVWR,59.4,R,3.5,N,1.8,M,6.5,K*60
$YDGLL,4844.8684,N,12313.7709,W,173645.00,A,D*73
$YDRMC,173645.00,A,4844.8684,N,12313.7709,W,0.0,316.9,210523,15.7,E,D,C*79
$YDXTE,A,A,0.000,L,N,A*39
$YDMWV,70.1,R,1.8,M,A*1C
$YDMWV,70.1,T,1.8,M,A*1A
$YDDPT,10.61,-1.82,140.0,*66
$YDDBT,34.8,f,10.61,M,5.80,F*08
$YDDBS,28.8,f,8.79,M,4.80,F*33
$YDVTG,316.9,T,301.2,M,0.0,N,0.0,K,A*24
$YDVLW,81.733,N,81.733,N*50
$YDRSA,169.9,A,,V*63
$YDMTW,12.4,C*09
$YDGSV,3,1,12,24,43,222,27,19,44,060,39,12,57,300,43,17,20,063,31*76
$GPBWC,173643,4844.1651,N,12313.6949,W,175.9,T,160.2,M,0.71,N,001,D*7A
$GPBWR,173643,4844.1651,N,12313.6949,W,175.9,T,160.2,M,0.71,N,001,A*6E
$GPRMB,A,0.000,L,,001,4844.1651,N,12313.6949,W,0.71,175.9,0.0,V,A*7B
$GPXTE,A,A,0.000,L,N,D*36
$IIHDG,108.4,,,15.7,E*1C
$SDDBT,34.8,f,10.6,M,5.8,F*03
$SDDPT,10.6,-1.8,*68
$IIHDG,108.4,,,15.7,E*1C
$SDMTW,12.4,C*03
$IIHDG,108.3,,,15.7,E*1B
$SDVLW,,N,0.0,N,1870.9,N,0.0,N*43
$SDVHW,124.0,T,108.3,M,0.0,N,0.0,K*4F
$IIHDG,108.3,,,15.7,E*1B
$WIMWD,,T,,M,,N,,M*5A
$WIMWV,61.2,R,3.5,N,A*10
$WIMWV,,T,,N,V*32
$IIHDG,108.3,,,15.7,E*1B
$IIXDR,C,,C,AIRTEMP,A,1.6,D,HEEL,A,1.3,D,TRIM,P,1.016,B,BARO,A,,D,RUDDER*2A
$IIHDG,108.3,,,15.7,E*1B
$GPGGA,173643,4844.8684,N,12313.7709,W,2,12,0.90,1,M,-17.0,M,,*5C
$IIHDG,108.2,,,15.7,E*1A
$GPGLC,9960,,,,,,,,,,,,*75
$GPGLL,4844.8684,N,12313.7709,W,173643,A,D*51
$GPGSA,A,3,24,19,12,17,06,11,32,25,76,86,77,87,1.60,0.90,1.30*05
$GPGSV,3,1,12,24,45,224,27,19,46,062,39,12,59,302,43,17,22,065,31*74
$GPGSV,3,2,12,06,61,092,30,11,45,170,29,32,09,314,26,25,23,300,26*75
$GPGSV,3,3,12,76,59,144,45,86,63,044,35,77,70,317,33,87,55,215,32*70
$IIHDG,108.2,,,15.7,E*1A
$GPRMC,173644,A,4844.8684,N,12313.7709,W,0.1,191.0,210523,15.7,E,D*36
$GPVTG,191.0,T,175.3,M,0.1,N,0.1,K,A*2A
$IIHDG,108.2,,,15.7,E*1A
$GPZDA,173644,21,05,2023,07,00*49
$GPAAM,V,V,0.05,N,001*12
$IIHDG,108.1,,,15.7,E*19
$GPAPB,A,A,0.000,L,N,V,V,175.9,T,001,175.9,T,175.9,T,D*41
$GPBOD,175.9,T,160.2,M,001,*79
$GPBWC,173644,4844.1651,N,12313.6949,W,175.9,T,160.2,M,0.71,N,001,D*7D
$GPBWR,173644,4844.1651,N,12313.6949,W,175.9,T,160.2,M,0.71,N,001,A*69
$GPRMB,A,0.000,L,,001,4844.1651,N,12313.6949,W,0.71,175.9,0.0,V,A*7B
$GPXTE,A,A,0.000,L,N,D*36
$IIHDG,108.1,,,15.7,E*19
$SDDBT,34.9,f,10.6,M,5.8,F*02
$SDDPT,10.7,-1.8,*69
$IIHDG,108.1,,,15.7,E*19
$SDMTW,12.4,C*03
$YDGLL,4844.8690,N,12313.7751,W,173645.37,A,D*7F
$YDRMC,173645.00,A,4844.8684,N,12313.7709,W,0.0,110.9,210523,15.7,E,D,C*7D
$YDXTE,A,A,0.000,L,N,A*39
$YDGSV,5,1,18,86,61,043,51,06,59,091,50,12,57,299,50,76,56,143,50*74
$YDGSV,5,2,18,11,43,169,47,87,53,212,47,24,43,222,46,32,07,312,46*79
$YDXDR,A,1.42,D,Pitch,A,1.96,D,Roll*21
$YDHDG,108.0,,,,*5D
$YDDPT,10.65,-1.82,140.0,*62
$YDMWV,64.6,R,1.8,M,A*1E
$YDVWR,64.6,R,3.6,N,1.8,M,6.6,K*6C
$YDVWT,65.1,R,3.5,N,1.8,M,6.6,K*6F
$YDMWV,57.1,R,1.7,M,A*16
$YDMWV,57.6,T,1.7,M,A*17
$YDDPT,10.65,-1.82,140.0,*62
$YDDBT,34.9,f,10.65,M,5.82,F*0F
$YDDBS,28.9,f,8.83,M,4.82,F*35
$YDVWR,57.1,R,3.5,N,1.8,M,6.4,K*6A
$YDVWT,57.6,R,3.4,N,1.8,M,6.4,K*6A
$IIHDG,108.0,,,15.7,E*18
$SDVLW,,N,0.0,N,1870.9,N,0.0,N*43
$SDVHW,123.7,T,108.0,M,0.0,N,0.0,K*4C
$IIHDG,108.0,,,15.7,E*18
$WIMWD,,T,,M,,N,,M*5A
$WIMWV,63.3,R,3.6,N,A*10
$WIMWV,,T,,N,V*32
$IIXDR,C,,C,AIRTEMP,A,2.0,D,HEEL,A,1.4,D,TRIM,P,1.016,B,BARO,A,,D,RUDDER*28
$IIHDG,107.9,,,15.7,E*1E
$IIHDG,107.9,,,15.7,E*1E
$GPGGA,173644,4844.8685,N,12313.7709,W,2,12,0.90,1,M,-17.0,M,,*5A
$IIHDG,107.8,,,15.7,E*1F
$GPGLC,9960,,,,,,,,,,,,*75
$GPGLL,4844.8685,N,12313.7709,W,173644,A,D*57
$GPGSA,A,3,24,19,12,17,06,11,32,25,76,86,77,87,1.60,0.90,1.30*05
$GPGSV,3,1,12,24,45,224,28,19,46,062,39,12,59,302,44,17,22,065,31*7C
$GPGSV,3,2,12,06,61,092,29,11,45,170,30,32,09,314,27,25,23,300,23*71
$GPGSV,3,3,12,76,59,144,45,86,63,044,35,77,70,317,33,87,55,215,33*71
$IIHDG,107.8,,,15.7,E*1F
$GPRMC,173645,A,4844.8685,N,12313.7709,W,0.1,191.0,210523,15.7,E,D*36
$GPVTG,191.0,T,175.3,M,0.1,N,0.1,K,A*2A
$GPZDA,173645,21,05,2023,07,00*48
$IIHDG,107.8,,,15.7,E*1F
$GPAAM,V,V,0.05,N,001*12
$GPAPB,A,A,0.000,L,N,V,V,175.9,T,001,175.9,T,175.9,T,D*41
$IIHDG,107.8,,,15.7,E*1F
$GPBOD,175.9,T,160.2,M,001,*79
$GPBWC,173645,4844.1651,N,12313.6949,W,175.9,T,160.2,M,0.71,N,001,D*7C
$GPBWR,173645,4844.1651,N,12313.6949,W,175.9,T,160.2,M,0.71,N,001,A*68
$GPRMB,A,0.000,L,,001,4844.1651,N,12313.6949,W,0.71,175.9,0.0,V,A*7B
$GPXTE,A,A,0.000,L,N,D*36
$SDDBT,34.5,f,10.5,M,5.7,F*02
$IIHDG,107.8,,,15.7,E*1F
$SDDPT,10.5,-1.8,*6B
$YDGLL,4844.8690,N,12313.7751,W,173646.32,A,A*7C
$YDRMC,173646.00,A,4844.8690,N,12313.7751,W,0.0,306.6,210523,15.7,E,A,C*79
$YDXTE,A,A,0.000,L,N,A*39
$YDGSV,5,1,18,86,61,043,51,12,57,299,50,76,56,143,50,06,59,091,49*7C
$YDGSV,5,2,18,11,43,169,49,32,07,312,47,87,53,212,47,24,43,222,46*76
$IIHDG,107.7,,,15.7,E*10
$SDMTW,12.4,C*03
$IIHDG,107.7,,,15.7,E*10
$SDVLW,,N,0.0,N,1870.9,N,0.0,N*43
$SDVHW,123.4,T,107.7,M,0.0,N,0.0,K*47
$IIHDG,107.7,,,15.7,E*10
$WIMWD,,T,,M,,N,,M*5A
$WIMWV,68.8,R,3.4,N,A*12
$WIMWV,,T,,N,V*32
$IIXDR,C,,C,AIRTEMP,A,1.9,D,HEEL,A,1.4,D,TRIM,P,1.017,B,BARO,A,,D,RUDDER*23
$YDGGA,173646.00,4844.8690,N,12313.7751,W,1,23,0.57,0.10,M,-18.00,M,,*6E
$YDXDR,P,101640,P,Baro*6F
$YDDBS,28.5,f,8.71,M,4.76,F*3F
$YDVHW,123.4,T,107.7,M,0.0,N,0.0,K,*61
$YDVTG,167.9,T,152.2,M,0.0,N,0.0,K,A*24
$YDVLW,81.733,N,81.733,N*50
$YDRSA,169.9,A,,V*63
$YDMTW,12.4,C*09
$IIHDG,107.7,,,15.7,E*10
$IIHDG,107.7,,,15.7,E*10
$GPGGA,173645,4844.8685,N,12313.7709,W,2,12,0.90,1,M,-17.0,M,,*5B
$GPGLC,9960,,,,,,,,,,,,*75
$IIHDG,107.7,,,15.7,E*10
$GPGLL,4844.8685,N,12313.7709,W,173645,A,D*56
$GPGSA,A,3,24,19,12,17,06,11,32,25,76,86,77,87,1.60,0.90,1.30*05
$GPGSV,3,1,12,24,45,224,29,19,46,062,37,12,59,302,44,17,22,065,31*73
$GPGSV,3,2,12,06,61,092,29,11,45,170,30,32,09,314,27,25,23,300,21*73
$GPGSV,3,3,12,76,59,144,46,86,63,044,34,77,70,317,33,87,55,215,34*74
$IIHDG,107.6,,,15.7,E*11
$GPRMC,173646,A,4844.8685,N,12313.7709,W,0.0,191.0,210523,15.7,E,D*34
$GPVTG,191.0,T,175.3,M,0.0,N,0.1,K,A*2B
$GPZDA,173646,21,05,2023,07,00*4B
$IIHDG,107.6,,,15.7,E*11
$GPAAM,V,V,0.05,N,001*12
$GPAPB,A,A,0.000,L,N,V,V,175.9,T,001,175.9,T,175.9,T,D*41
$IIHDG,107.6,,,15.7,E*11
!AIVDM,1,1,,,14eG;u@000o;3t@Ko6@`69uL0000,0*29
$GPBOD,175.9,T,160.2,M,001,*79
$GPBWC,173646,4844.1651,N,12313.6949,W,175.9,T,160.2,M,0.71,N,001,D*7F
!AIVDM,1,1,,,14eG;u@000o;3t@Ko6@`69uL0000,0*29
$GPBWR,173646,4844.1651,N,12313.6949,W,175.9,T,160.2,M,0.71,N,001,A*6B
$GPRMB,A,0.000,L,,001,4844.1651,N,12313.6949,W,0.71,175.9,0.1,V,A*7A
$GPXTE,A,A,0.000,L,N,D*36
$SDDBT,34.5,f,10.5,M,5.7,F*02
$IIHDG,107.6,,,15.7,E*11
$SDDPT,10.5,-1.8,*6B
$IIHDG,107.6,,,15.7,E*11
$SDMTW,12.4,C*03
$IIHDG,107.6,,,15.7,E*11
$SDVLW,,N,0.0,N,1870.9,N,0.0,N*43
$SDVHW,123.3,T,107.6,M,0.0,N,0.0,K*41
$IIHDG,107.6,,,15.7,E*11
$WIMWD,,T,,M,,N,,M*5A
$WIMWV,78.8,R,3.3,N,A*14
$WIMWV,,T,,N,V*32
!AIVDM,1,1,,,H4eHlWhHUHF0pTpE<00000000000,0*5B
$IIXDR,C,,C,AIRTEMP,A,1.5,D,HEEL,A,1.3,D,TRIM,P,1.017,B,BARO,A,,D,RUDDER*28
$IIHDG,107.6,,,15.7,E*11
!AIVDM,1,1,,,39N`2H@02;o;IuhKq8PSqBuH0000,0*4F
!AIVDM,1,1,,,39N`2H@02;o;IuhKq8PSqBuH0000,0*4F
$IIHDG,107.6,,,15.7,E*11
$GPGGA,173646,4844.8685,N,12313.7709,W,2,12,0.90,1,M,-17.0,M,,*58
$GPGLC,9960,,,,,,,,,,,,*75
$YDGLL,4844.8685,N,12313.7708,W,173648.00,A,D*7E
$YDRMC,173648.00,A,4844.8685,N,12313.7708,W,0.0,167.9,210523,15.7,E,D,C*70
$YDXTE,A,A,0.000,L,N,A*39
!AIVDM,1,1,,B,H4eHlWlUFC@<BKC361khlk0h5310,0*2A
!AIVDM,1,1,,B,H4eHlWlUFC@<BKC361khlk0h5310,0*2A
$YDGSV,3,1,12,24,43,222,29,19,44,060,36,12,57,300,44,17,20,063,32*73
$YDMDA,30.0142,I,1.0164,B,,C,12.4,C,,,,C,199.8,T,184.1,M,3.1,N,1.6,M*28
$YDXDR,A,1.34,D,Pitch,A,1.51,D,Roll*2B
$YDHDG,107.6,,,15.7,E*0C
$YDDPT,10.53,-1.82,140.0,*67
$YDMWV,76.2,R,1.6,M,A*17
$YDVTG,167.9,T,152.2,M,0.0,N,0.0,K,A*24
$YDVWR,76.2,R,3.1,N,1.6,M,5.8,K*6F
$YDVWT,76.5,R,3.1,N,1.6,M,5.8,K*6E
$YDGLL,4844.8691,N,12313.7750,W,173648.33,A,A*73
$YDRMC,173648.00,A,4844.8691,N,12313.7751,W,0.0,154.9,210523,15.7,E,A,C*7C
$YDXTE,A,A,0.000,L,N,A*39
$IIHDG,107.6,,,15.7,E*11
!AIVDM,1,1,,,H4eHlWlU0000000361khlk0`5210,0*62
!AIVDM,1,1,,,H4eHlWlU0000000361khlk0`5210,0*62
$GPGLL,4844.8685,N,12313.7709,W,173646,A,D*55
$GPGSA,A,3,24,19,12,17,06,11,32,25,76,86,77,87,1.60,0.90,1.30*05
$GPGSV,3,1,12,24,45,224,29,19,46,062,36,12,59,302,44,17,22,065,32*71
$GPGSV,3,2,12,06,61,092,29,11,45,170,32,32,09,314,27,25,23,300,21*71
$GPGSV,3,3,12,76,59,144,45,86,63,044,33,77,70,317,33,87,55,215,35*71
$IIHDG,107.6,,,15.7,E*11
$GPRMC,173647,A,4844.8685,N,12313.7709,W,0.1,191.0,210523,15.7,E,D*34
$GPVTG,191.0,T,175.3,M,0.1,N,0.1,K,A*2A
$GPZDA,173647,21,05,2023,07,00*4A
$IIHDG,107.6,,,15.7,E*11
$GPAAM,V,V,0.05,N,001*12
$GPAPB,A,A,0.000,L,N,V,V,175.9,T,001,175.9,T,175.9,T,D*41
$IIHDG,107.6,,,15.7,E*11
$GPBOD,175.9,T,160.2,M,001,*79
$GPBWC,173647,4844.1651,N,12313.6949,W,175.9,T,160.2,M,0.71,N,001,D*7E
$GPBWR,173647,4844.1651,N,12313.6949,W,175.9,T,160.2,M,0.71,N,001,A*6A
$GPRMB,A,0.000,L,,001,4844.1651,N,12313.6949,W,0.71,175.9,0.0,V,A*7B
$GPXTE,A,A,0.000,L,N,D*36
$SDDBT,34.5,f,10.5,M,5.7,F*02
$IIHDG,107.6,,,15.7,E*11
$SDDPT,10.5,-1.8,*6B
!AIVDM,1,1,,,H4eHlWlU0000000361khlk0`5210,0*62
$SDMTW,12.4,C*03
$IIHDG,107.6,,,15.7,E*11
